[{"StateShort":"QLD","StateLong":"Queensland","storesList":[{"Address":"Main St","PhoneNumber":"(07) 4124 1066","OpeningHours":"<ul id=\"openingHrs\"><li>Monday - Friday<span>8am - 9pm</span></li><li>Saturday<span>8am - 5:30pm</span></li><li>Sunday<span>9am - 6pm</span></li></ul>","OpeningHoursJson":[{"Day":"Monday - Friday","Time":"8am - 9pm"},{"Day":"Saturday","Time":"8am - 5:30pm"},{"Day":"Sunday","Time":"9am - 6pm"}],"ExceptionalHoursJson":[{"Date":"Monday 03 October","Reason":"Queen's Birthday","Details":"8:30am - 5:30pm","OpeningTime":null,"ClosingTime":null}],"Id":"4513","StoreName":" Hervey Bay","Brand":"2","Latitude":"-25.282842","Longitude":"152.839038","Suburb":"Pialba","Postcode":"4655","State":"QLD","Uri":"/store-locator/stores/qld/pialba-4513","IsClickCollectStore":"false","Distance":15977.16,"StoreItemNode":null,"TodaysOpenTime":"8am","TodaysClosingTime":"5:30pm","LocalitiesWithin50km":null,"OpenToday":"8am - 5:30pm","TodayDate":"01 October 2016"},{"Address":"Petrie Tce","PhoneNumber":"(07) 3367 9600","OpeningHours":"<ul id=\"openingHrs\"><li>Monday - Friday<span>7am - 9pm</span></li><li>Saturday<span>7am - 7pm</span></li><li>Sunday<span>9am - 6pm</span></li></ul>","OpeningHoursJson":[{"Day":"Monday - Friday","Time":"7am - 9pm"},{"Day":"Saturday","Time":"7am - 7pm"},{"Day":"Sunday","Time":"9am - 6pm"}],"ExceptionalHoursJson":[{"Date":"Monday 03 October","Reason":"Queen's Birthday","Details":"9am - 6pm","OpeningTime":null,"ClosingTime":null}],"Id":"4461","StoreName":" Petrie Terrace","Brand":"2","Latitude":"-27.46522","Longitude":"153.013021","Suburb":"Petrie Terrace","Postcode":"4000","State":"QLD","Uri":"/store-locator/stores/qld/petrie-terrace-4461","IsClickCollectStore":"false","Distance":15830.97,"StoreItemNode":null,"TodaysOpenTime":"7am","TodaysClosingTime":"7pm","LocalitiesWithin50km":null,"OpenToday":"7am - 7pm","TodayDate":"01 October 2016"},{"Address":"11 - 17 Macrossan St","PhoneNumber":"(07) 4099 5366","OpeningHours":"<ul id=\"openingHrs\"><li>Monday - Friday<span>7am - 9pm</span></li><li>Saturday<span>7am - 5:30pm</span></li><li>Sunday<span>7am - 6pm</span></li></ul>","OpeningHoursJson":[{"Day":"Monday - Friday","Time":"7am - 9pm"},{"Day":"Saturday","Time":"7am - 5:30pm"},{"Day":"Sunday","Time":"7am - 6pm"}],"ExceptionalHoursJson":[{"Date":"Monday 03 October","Reason":"Queen's Birthday","Details":"7am - 6pm","OpeningTime":null,"ClosingTime":null}],"Id":"4546","StoreName":" Port Douglas","Brand":"2","Latitude":"-16.481956","Longitude":"145.463034","Suburb":"Port Douglas","Postcode":"4877","State":"QLD","Uri":"/store-locator/stores/qld/port-douglas-4546","IsClickCollectStore":"false","Distance":15823.04,"StoreItemNode":null,"TodaysOpenTime":"7am","TodaysClosingTime":"5:30pm","LocalitiesWithin50km":null,"OpenToday":"7am - 5:30pm","TodayDate":"01 October 2016"},{"Address":"Cnr Ashmole Rd & Klingner Rd","PhoneNumber":"(07) 3480 3100","OpeningHours":"<ul id=\"openingHrs\"><li>Monday - Friday<span>8am - 9pm</span></li><li>Saturday<span>8am - 5pm</span></li><li>Sunday<span>9am - 6pm</span></li></ul>","OpeningHoursJson":[{"Day":"Monday - Friday","Time":"8am - 9pm"},{"Day":"Saturday","Time":"8am - 5pm"},{"Day":"Sunday","Time":"9am - 6pm"}],"ExceptionalHoursJson":[{"Date":"Monday 03 October","Reason":"Queen's Birthday","Details":"9am - 6pm","OpeningTime":null,"ClosingTime":null}],"Id":"4422","StoreName":" Redcliffe","Brand":"2","Latitude":"-27.220211","Longitude":"153.098335","Suburb":"Redcliffe","Postcode":"4021","State":"QLD","Uri":"/store-locator/stores/qld/redcliffe-4422","IsClickCollectStore":"false","Distance":15855.51,"StoreItemNode":null,"TodaysOpenTime":"8am","TodaysClosingTime":"5pm","LocalitiesWithin50km":null,"OpenToday":"8am - 5pm","TodayDate":"01 October 2016"},{"Address":"1 Collingwood Park Drv","PhoneNumber":"(07) 3436 0400","OpeningHours":"<ul id=\"openingHrs\"><li>Monday - Friday<span>8am - 9pm</span></li><li>Saturday<span>8am - 5pm</span></li><li>Sunday<span>9am - 6pm</span></li></ul>","OpeningHoursJson":[{"Day":"Monday - Friday","Time":"8am - 9pm"},{"Day":"Saturday","Time":"8am - 5pm"},{"Day":"Sunday","Time":"9am - 6pm"}],"ExceptionalHoursJson":[{"Date":"Monday 03 October","Reason":"Queen's Birthday","Details":"9am - 6pm","OpeningTime":null,"ClosingTime":null}],"Id":"4504","StoreName":" Redbank","Brand":"2","Latitude":"-27.605426","Longitude":"152.867366","Suburb":"Redbank","Postcode":"4301","State":"QLD","Uri":"/store-locator/stores/qld/redbank-4504","IsClickCollectStore":"false","Distance":15809.84,"StoreItemNode":null,"TodaysOpenTime":"8am","TodaysClosingTime":"5pm","LocalitiesWithin50km":null,"OpenToday":"8am - 5pm","TodayDate":"01 October 2016"},{"Address":"1 Ridgeview Dr","PhoneNumber":"(07) 5471 4100","OpeningHours":"<ul id=\"openingHrs\"><li>Monday - Friday<span>8am - 9pm</span></li><li>Saturday<span>8am - 5:30pm</span></li><li>Sunday<span>9am - 6pm</span></li></ul>","OpeningHoursJson":[{"Day":"Monday - Friday","Time":"8am - 9pm"},{"Day":"Saturday","Time":"8am - 5:30pm"},{"Day":"Sunday","Time":"9am - 6pm"}],"ExceptionalHoursJson":[{"Date":"Monday 03 October","Reason":"Queen's Birthday","Details":"9am - 6pm","OpeningTime":null,"ClosingTime":null}],"Id":"8758","StoreName":" Peregian Springs","Brand":"2","Latitude":"-26.499826","Longitude":"153.079193","Suburb":"Peregian Springs","Postcode":"4573","State":"QLD","Uri":"/store-locator/stores/qld/peregian-springs-8758","IsClickCollectStore":"false","Distance":15907.39,"StoreItemNode":null,"TodaysOpenTime":"8am","TodaysClosingTime":"5:30pm","LocalitiesWithin50km":null,"OpenToday":"8am - 5:30pm","TodayDate":"01 October 2016"},{"Address":"180 - 186 Pascoe Rd","PhoneNumber":"(07) 5547 5055","OpeningHours":"<ul id=\"openingHrs\"><li>Monday - Friday<span>8am - 9pm</span></li><li>Saturday<span>8am - 5pm</span></li><li>Sunday<span>9am - 6pm</span></li></ul>","OpeningHoursJson":[{"Day":"Monday - Friday","Time":"8am - 9pm"},{"Day":"Saturday","Time":"8am - 5pm"},{"Day":"Sunday","Time":"9am - 6pm"}],"ExceptionalHoursJson":[{"Date":"Monday 03 October","Reason":"Queen's Birthday","Details":"9am - 6pm","OpeningTime":null,"ClosingTime":null}],"Id":"8736","StoreName":" Ormeau","Brand":"2","Latitude":"-27.763632","Longitude":"153.244094","Suburb":"Ormeau","Postcode":"4208","State":"QLD","Uri":"/store-locator/stores/qld/ormeau-8736","IsClickCollectStore":"false","Distance":15825.36,"StoreItemNode":null,"TodaysOpenTime":"8am","TodaysClosingTime":"5pm","LocalitiesWithin50km":null,"OpenToday":"8am - 5pm","TodayDate":"01 October 2016"},{"Address":"722 - 728 David Low Way","PhoneNumber":"(07) 5448 8488","OpeningHours":"<ul id=\"openingHrs\"><li>Monday - Friday<span>8am - 9pm</span></li><li>Saturday<span>8am - 5:30pm</span></li><li>Sunday<span>9am - 6pm</span></li></ul>","OpeningHoursJson":[{"Day":"Monday - Friday","Time":"8am - 9pm"},{"Day":"Saturday","Time":"8am - 5:30pm"},{"Day":"Sunday","Time":"9am - 6pm"}],"ExceptionalHoursJson":[{"Date":"Monday 03 October","Reason":"Queen's Birthday","Details":"9am - 6pm","OpeningTime":null,"ClosingTime":null}],"Id":"4674","StoreName":" North Shore","Brand":"2","Latitude":"-26.614095","Longitude":"153.082109","Suburb":"Pacific Paradise","Postcode":"4564","State":"QLD","Uri":"/store-locator/stores/qld/pacific-paradise-4674","IsClickCollectStore":"false","Distance":15899.2,"StoreItemNode":null,"TodaysOpenTime":"8am","TodaysClosingTime":"5:30pm","LocalitiesWithin50km":null,"OpenToday":"8am - 5:30pm","TodayDate":"01 October 2016"},{"Address":"Pelican Waters Blvd","PhoneNumber":"(07) 5492 4644","OpeningHours":"<ul id=\"openingHrs\"><li>Monday - Friday<span>8am - 9pm</span></li><li>Saturday<span>8am - 5:30pm</span></li><li>Sunday<span>9am - 6pm</span></li></ul>","OpeningHoursJson":[{"Day":"Monday - Friday","Time":"8am - 9pm"},{"Day":"Saturday","Time":"8am - 5:30pm"},{"Day":"Sunday","Time":"9am - 6pm"}],"ExceptionalHoursJson":[{"Date":"Monday 03 October","Reason":"Queen's Birthday","Details":"9am - 6pm","OpeningTime":null,"ClosingTime":null}],"Id":"4559","StoreName":" Pelican Waters","Brand":"2","Latitude":"-26.833911","Longitude":"153.108239","Suburb":"Pelican Waters","Postcode":"4551","State":"QLD","Uri":"/store-locator/stores/qld/pelican-waters-4559","IsClickCollectStore":"false","Distance":15884.92,"StoreItemNode":null,"TodaysOpenTime":"8am","TodaysClosingTime":"5:30pm","LocalitiesWithin50km":null,"OpenToday":"8am - 5:30pm","TodayDate":"01 October 2016"},{"Address":"Gold Coast Hwy & Fourth Ave","PhoneNumber":"(07) 5559 6100","OpeningHours":"<ul id=\"openingHrs\"><li>Monday - Friday<span>7am - 10pm</span></li><li>Saturday<span>7am - 10pm</span></li><li>Sunday<span>8am - 8pm</span></li></ul>","OpeningHoursJson":[{"Day":"Monday - Friday","Time":"7am - 10pm"},{"Day":"Saturday","Time":"7am - 10pm"},{"Day":"Sunday","Time":"8am - 8pm"}],"ExceptionalHoursJson":[{"Date":"Monday 03 October","Reason":"Queen's Birthday","Details":"8am - 8pm","OpeningTime":null,"ClosingTime":null}],"Id":"4562","StoreName":" Palm Beach","Brand":"2","Latitude":"-28.122609","Longitude":"153.47275","Suburb":"Palm Beach","Postcode":"4221","State":"QLD","Uri":"/store-locator/stores/qld/palm-beach-4562","IsClickCollectStore":"false","Distance":15814.52,"StoreItemNode":null,"TodaysOpenTime":"7am","TodaysClosingTime":"10pm","LocalitiesWithin50km":null,"OpenToday":"7am - 10pm","TodayDate":"01 October 2016"},{"Address":"Springfield Pkwy & Topaz Rd","PhoneNumber":"(07) 3818 6074","OpeningHours":"<ul id=\"openingHrs\"><li>Monday - Friday<span>8am - 9pm</span></li><li>Saturday<span>8am - 5pm</span></li><li>Sunday<span>9am - 6pm</span></li></ul>","OpeningHoursJson":[{"Day":"Monday - Friday","Time":"8am - 9pm"},{"Day":"Saturday","Time":"8am - 5pm"},{"Day":"Sunday","Time":"9am - 6pm"}],"ExceptionalHoursJson":[{"Date":"Monday 03 October","Reason":"Queen's Birthday","Details":"9am - 6pm","OpeningTime":null,"ClosingTime":null}],"Id":"4533","StoreName":" Springfield","Brand":"2","Latitude":"-27.653133","Longitude":"152.918076","Suburb":"Springfield","Postcode":"4300","State":"QLD","Uri":"/store-locator/stores/qld/springfield-4533","IsClickCollectStore":"false","Distance":15809.98,"StoreItemNode":null,"TodaysOpenTime":"8am","TodaysClosingTime":"5pm","LocalitiesWithin50km":null,"OpenToday":"8am - 5pm","TodayDate":"01 October 2016"},{"Address":"223-225 Scarborough St","PhoneNumber":"(07) 5532 5666","OpeningHours":"<ul id=\"openingHrs\"><li>Monday - Friday<span>7am - 10pm</span></li><li>Saturday<span>7am - 10pm</span></li><li>Sunday<span>8am - 8pm</span></li></ul>","OpeningHoursJson":[{"Day":"Monday - Friday","Time":"7am - 10pm"},{"Day":"Saturday","Time":"7am - 10pm"},{"Day":"Sunday","Time":"8am - 8pm"}],"ExceptionalHoursJson":[{"Date":"Monday 03 October","Reason":"Queen's Birthday","Details":"8am - 8pm","OpeningTime":null,"ClosingTime":null}],"Id":"4500","StoreName":" Southport","Brand":"2","Latitude":"-27.969039","Longitude":"153.415496","Suburb":"Southport","Postcode":"4215","State":"QLD","Uri":"/store-locator/stores/qld/southport-4500","IsClickCollectStore":"false","Distance":15822.14,"StoreItemNode":null,"TodaysOpenTime":"7am","TodaysClosingTime":"10pm","LocalitiesWithin50km":null,"OpenToday":"7am - 10pm","TodayDate":"01 October 2016"},{"Address":"Cinderella Drv","PhoneNumber":"(07) 3208 4088","OpeningHours":"<ul id=\"openingHrs\"><li>Monday - Friday<span>8am - 9pm</span></li><li>Saturday<span>8am - 5pm</span></li><li>Sunday<span>9am - 6pm</span></li></ul>","OpeningHoursJson":[{"Day":"Monday - Friday","Time":"8am - 9pm"},{"Day":"Saturday","Time":"8am - 5pm"},{"Day":"Sunday","Time":"9am - 6pm"}],"ExceptionalHoursJson":[{"Date":"Monday 03 October","Reason":"Queen's Birthday","Details":"9am - 6pm","OpeningTime":null,"ClosingTime":null}],"Id":"4472","StoreName":" Springwood","Brand":"2","Latitude":"-27.611943","Longitude":"153.123968","Suburb":"Springwood","Postcode":"4127","State":"QLD","Uri":"/store-locator/stores/qld/springwood-4472","IsClickCollectStore":"false","Distance":15828.07,"StoreItemNode":null,"TodaysOpenTime":"8am","TodaysClosingTime":"5pm","LocalitiesWithin50km":null,"OpenToday":"8am - 5pm","TodayDate":"01 October 2016"},{"Address":"Gympie Rd","PhoneNumber":"(07) 3490 4200","OpeningHours":"<ul id=\"openingHrs\"><li>Monday - Friday<span>8am - 9pm</span></li><li>Saturday<span>8am - 5pm</span></li><li>Sunday<span>9am - 6pm</span></li></ul>","OpeningHoursJson":[{"Day":"Monday - Friday","Time":"8am - 9pm"},{"Day":"Saturday","Time":"8am - 5pm"},{"Day":"Sunday","Time":"9am - 6pm"}],"ExceptionalHoursJson":[{"Date":"Monday 03 October","Reason":"Queen's Birthday","Details":"9am - 6pm","OpeningTime":null,"ClosingTime":null}],"Id":"4411","StoreName":" Strathpine","Brand":"2","Latitude":"-27.306906","Longitude":"152.990649","Suburb":"Strathpine","Postcode":"4500","State":"QLD","Uri":"/store-locator/stores/qld/strathpine-4411","IsClickCollectStore":"false","Distance":15841.13,"StoreItemNode":null,"TodaysOpenTime":"8am","TodaysClosingTime":"5pm","LocalitiesWithin50km":null,"OpenToday":"8am - 5pm","TodayDate":"01 October 2016"},{"Address":"261 Appleby Rd","PhoneNumber":"(07) 3359 6511","OpeningHours":"<ul id=\"openingHrs\"><li>Monday - Friday<span>8am - 9pm</span></li><li>Saturday<span>8am - 5pm</span></li><li>Sunday<span>9am - 6pm</span></li></ul>","OpeningHoursJson":[{"Day":"Monday - Friday","Time":"8am - 9pm"},{"Day":"Saturday","Time":"8am - 5pm"},{"Day":"Sunday","Time":"9am - 6pm"}],"ExceptionalHoursJson":[{"Date":"Monday 03 October","Reason":"Queen's Birthday","Details":"9am - 6pm","OpeningTime":null,"ClosingTime":null}],"Id":"8726","StoreName":" Rode","Brand":"2","Latitude":"-27.392367","Longitude":"153.011548","Suburb":"Stafford Heights","Postcode":"4053","State":"QLD","Uri":"/store-locator/stores/qld/stafford-heights-8726","IsClickCollectStore":"false","Distance":15836.3,"StoreItemNode":null,"TodaysOpenTime":"8am","TodaysClosingTime":"5pm","LocalitiesWithin50km":null,"OpenToday":"8am - 5pm","TodayDate":"01 October 2016"},{"Address":"Captain Cook Hwy & Kennedy Hwy","PhoneNumber":"(07) 4038 2299","OpeningHours":"<ul id=\"openingHrs\"><li>Monday - Friday<span>8am - 9pm</span></li><li>Saturday<span>8am - 5:30pm</span></li><li>Sunday<span>9am - 6pm</span></li></ul>","OpeningHoursJson":[{"Day":"Monday - Friday","Time":"8am - 9pm"},{"Day":"Saturday","Time":"8am - 5:30pm"},{"Day":"Sunday","Time":"9am - 6pm"}],"ExceptionalHoursJson":[{"Date":"Monday 03 October","Reason":"Queen's Birthday","Details":"8:30am - 5:30pm","OpeningTime":null,"ClosingTime":null}],"Id":"4532","StoreName":" Smithfield","Brand":"2","Latitude":"-16.837177","Longitude":"145.691586","Suburb":"Smithfield","Postcode":"4878","State":"QLD","Uri":"/store-locator/stores/qld/smithfield-4532","IsClickCollectStore":"false","Distance":15830.26,"StoreItemNode":null,"TodaysOpenTime":"8am","TodaysClosingTime":"5:30pm","LocalitiesWithin50km":null,"OpenToday":"8am - 5:30pm","TodayDate":"01 October 2016"},{"Address":"249 Musgrave St","PhoneNumber":"(07) 4930 8400","OpeningHours":"<ul id=\"openingHrs\"><li>Monday - Friday<span>8am - 9pm</span></li><li>Saturday<span>8am - 5pm</span></li><li>Sunday<span>9am - 6pm</span></li></ul>","OpeningHoursJson":[{"Day":"Monday - Friday","Time":"8am - 9pm"},{"Day":"Saturday","Time":"8am - 5pm"},{"Day":"Sunday","Time":"9am - 6pm"}],"ExceptionalHoursJson":[{"Date":"Monday 03 October","Reason":"Queen's Birthday","Details":"8:30am - 5:30pm","OpeningTime":null,"ClosingTime":null}],"Id":"4455","StoreName":" Rockhampton North","Brand":"2","Latitude":"-23.356894","Longitude":"150.522178","Suburb":"Rockhampton","Postcode":"4701","State":"QLD","Uri":"/store-locator/stores/qld/rockhampton-4455","IsClickCollectStore":"true","Distance":15920.67,"StoreItemNode":null,"TodaysOpenTime":"8am","TodaysClosingTime":"5pm","LocalitiesWithin50km":null,"OpenToday":"8am - 5pm","TodayDate":"01 October 2016"},{"Address":"Lae Drv & Morala Av","PhoneNumber":"(07) 5537 2344","OpeningHours":"<ul id=\"openingHrs\"><li>Monday - Friday<span>8am - 9pm</span></li><li>Saturday<span>8am - 5:30pm</span></li><li>Sunday<span>9am - 6pm</span></li></ul>","OpeningHoursJson":[{"Day":"Monday - Friday","Time":"8am - 9pm"},{"Day":"Saturday","Time":"8am - 5:30pm"},{"Day":"Sunday","Time":"9am - 6pm"}],"ExceptionalHoursJson":[{"Date":"Monday 03 October","Reason":"Queen's Birthday","Details":"9am - 6pm","OpeningTime":null,"ClosingTime":null}],"Id":"4530","StoreName":" Runaway Bay","Brand":"2","Latitude":"-27.914277","Longitude":"153.400113","Suburb":"Runaway Bay","Postcode":"4216","State":"QLD","Uri":"/store-locator/stores/qld/runaway-bay-4530","IsClickCollectStore":"true","Distance":15825.2,"StoreItemNode":null,"TodaysOpenTime":"8am","TodaysClosingTime":"5:30pm","LocalitiesWithin50km":null,"OpenToday":"8am - 5:30pm","TodayDate":"01 October 2016"},{"Address":"Fitzroy St & Bolsover St","PhoneNumber":"(07) 4927 8344","OpeningHours":"<ul id=\"openingHrs\"><li>Monday - Friday<span>8am - 9pm</span></li><li>Saturday<span>8am - 5pm</span></li><li>Sunday<span>9am - 6pm</span></li></ul>","OpeningHoursJson":[{"Day":"Monday - Friday","Time":"8am - 9pm"},{"Day":"Saturday","Time":"8am - 5pm"},{"Day":"Sunday","Time":"9am - 6pm"}],"ExceptionalHoursJson":[{"Date":"Monday 03 October","Reason":"Queen's Birthday","Details":"8:30am - 5:30pm","OpeningTime":null,"ClosingTime":null}],"Id":"4518","StoreName":" Rockhampton South","Brand":"2","Latitude":"-23.377172","Longitude":"150.509802","Suburb":"Rockhampton","Postcode":"4700","State":"QLD","Uri":"/store-locator/stores/qld/rockhampton-4518","IsClickCollectStore":"false","Distance":15918.34,"StoreItemNode":null,"TodaysOpenTime":"8am","TodaysClosingTime":"5pm","LocalitiesWithin50km":null,"OpenToday":"8am - 5pm","TodayDate":"01 October 2016"},{"Address":"Wynnum Rd & Junction Rd","PhoneNumber":"(07) 3399 0850","OpeningHours":"<ul id=\"openingHrs\"><li>Monday - Friday<span>8am - 9pm</span></li><li>Saturday<span>8am - 5pm</span></li><li>Sunday<span>9am - 6pm</span></li></ul>","OpeningHoursJson":[{"Day":"Monday - Friday","Time":"8am - 9pm"},{"Day":"Saturday","Time":"8am - 5pm"},{"Day":"Sunday","Time":"9am - 6pm"}],"ExceptionalHoursJson":[{"Date":"Monday 03 October","Reason":"Queen's Birthday","Details":"9am - 6pm","OpeningTime":null,"ClosingTime":null}],"Id":"4578","StoreName":" Morningside","Brand":"2","Latitude":"-27.465241","Longitude":"153.079213","Suburb":"Morningside","Postcode":"4170","State":"QLD","Uri":"/store-locator/stores/qld/morningside-4578","IsClickCollectStore":"false","Distance":15835.81,"StoreItemNode":null,"TodaysOpenTime":"8am","TodaysClosingTime":"5pm","LocalitiesWithin50km":null,"OpenToday":"8am - 5pm","TodayDate":"01 October 2016"},{"Address":"197 Morayfield Rd","PhoneNumber":"(07) 5498 9337","OpeningHours":"<ul id=\"openingHrs\"><li>Monday - Friday<span>8am - 9pm</span></li><li>Saturday<span>8am - 5pm</span></li><li>Sunday<span>9am - 6pm</span></li></ul>","OpeningHoursJson":[{"Day":"Monday - Friday","Time":"8am - 9pm"},{"Day":"Saturday","Time":"8am - 5pm"},{"Day":"Sunday","Time":"9am - 6pm"}],"ExceptionalHoursJson":[{"Date":"Monday 03 October","Reason":"Queen's Birthday","Details":"9am - 6pm","OpeningTime":null,"ClosingTime":null}],"Id":"8721","StoreName":" Morayfield","Brand":"2","Latitude":"-27.103785","Longitude":"152.950217","Suburb":"Morayfield","Postcode":"4506","State":"QLD","Uri":"/store-locator/stores/qld/morayfield-8721","IsClickCollectStore":"false","Distance":15853.24,"StoreItemNode":null,"TodaysOpenTime":"8am","TodaysClosingTime":"5pm","LocalitiesWithin50km":null,"OpenToday":"8am - 5pm","TodayDate":"01 October 2016"},{"Address":"Simpson St & Marian St","PhoneNumber":"(07) 4437 1100","OpeningHours":"<ul id=\"openingHrs\"><li>Monday - Friday<span>8am - 9pm</span></li><li>Saturday<span>8am - 5pm</span></li><li>Sunday<span>Closed</span></li></ul>","OpeningHoursJson":[{"Day":"Monday - Friday","Time":"8am - 9pm"},{"Day":"Saturday","Time":"8am - 5pm"},{"Day":"Sunday","Time":"Closed"}],"ExceptionalHoursJson":[{"Date":"Monday 03 October","Reason":"Queen's Birthday","Details":"Closed","OpeningTime":null,"ClosingTime":null}],"Id":"4487","StoreName":" Mount Isa","Brand":"2","Latitude":"-20.726005","Longitude":"139.494411","Suburb":"Mount Isa","Postcode":"4825","State":"QLD","Uri":"/store-locator/stores/qld/mount-isa-4487","IsClickCollectStore":"false","Distance":15060.71,"StoreItemNode":null,"TodaysOpenTime":"8am","TodaysClosingTime":"5pm","LocalitiesWithin50km":null,"OpenToday":"8am - 5pm","TodayDate":"01 October 2016"},{"Address":"Bruce Hwy & Foster Rd","PhoneNumber":"(07) 4036 4800","OpeningHours":"<ul id=\"openingHrs\"><li>Monday - Friday<span>8am - 9pm</span></li><li>Saturday<span>8am - 5:30pm</span></li><li>Sunday<span>9am - 6pm</span></li></ul>","OpeningHoursJson":[{"Day":"Monday - Friday","Time":"8am - 9pm"},{"Day":"Saturday","Time":"8am - 5:30pm"},{"Day":"Sunday","Time":"9am - 6pm"}],"ExceptionalHoursJson":[{"Date":"Monday 03 October","Reason":"Queen's Birthday","Details":"8:30am - 5:30pm","OpeningTime":null,"ClosingTime":null}],"Id":"4567","StoreName":" Mount Sheridan","Brand":"2","Latitude":"-16.988232","Longitude":"145.740236","Suburb":"Mount Sheridan","Postcode":"4868","State":"QLD","Uri":"/store-locator/stores/qld/mount-sheridan-4567","IsClickCollectStore":"false","Distance":15828.43,"StoreItemNode":null,"TodaysOpenTime":"8am","TodaysClosingTime":"5:30pm","LocalitiesWithin50km":null,"OpenToday":"8am - 5:30pm","TodayDate":"01 October 2016"},{"Address":"171 Dandenong Rd","PhoneNumber":"(07) 3725 7200","OpeningHours":"<ul id=\"openingHrs\"><li>Monday - Friday<span>8am - 9pm</span></li><li>Saturday<span>8am - 5pm</span></li><li>Sunday<span>9am - 6pm</span></li></ul>","OpeningHoursJson":[{"Day":"Monday - Friday","Time":"8am - 9pm"},{"Day":"Saturday","Time":"8am - 5pm"},{"Day":"Sunday","Time":"9am - 6pm"}],"ExceptionalHoursJson":[{"Date":"Monday 03 October","Reason":"Queen's Birthday","Details":"9am - 6pm","OpeningTime":null,"ClosingTime":null}],"Id":"4412","StoreName":" Mount Ommaney","Brand":"2","Latitude":"-27.549671","Longitude":"152.938748","Suburb":"Mount Ommaney","Postcode":"4074","State":"QLD","Uri":"/store-locator/stores/qld/mount-ommaney-4412","IsClickCollectStore":"false","Distance":15819.22,"StoreItemNode":null,"TodaysOpenTime":"8am","TodaysClosingTime":"5pm","LocalitiesWithin50km":null,"OpenToday":"8am - 5pm","TodayDate":"01 October 2016"},{"Address":"Griffin Street","PhoneNumber":"(07) 4941 8888","OpeningHours":"<ul id=\"openingHrs\"><li>Monday - Friday<span>8am - 9pm</span></li><li>Saturday<span>8am - 5pm</span></li><li>Sunday<span>9am - 6pm</span></li></ul>","OpeningHoursJson":[{"Day":"Monday - Friday","Time":"8am - 9pm"},{"Day":"Saturday","Time":"8am - 5pm"},{"Day":"Sunday","Time":"9am - 6pm"}],"ExceptionalHoursJson":[{"Date":"Monday 03 October","Reason":"Queen's Birthday","Details":"8:30am - 5:30pm","OpeningTime":null,"ClosingTime":null}],"Id":"4503","StoreName":" Moranbah","Brand":"2","Latitude":"-22.00099","Longitude":"148.043099","Suburb":"Moranbah","Postcode":"4744","State":"QLD","Uri":"/store-locator/stores/qld/moranbah-4503","IsClickCollectStore":"false","Distance":15789.34,"StoreItemNode":null,"TodaysOpenTime":"8am","TodaysClosingTime":"5pm","LocalitiesWithin50km":null,"OpenToday":"8am - 5pm","TodayDate":"01 October 2016"},{"Address":"Nundah Ave & Gold Coast Hwy","PhoneNumber":"(07) 5535 2188","OpeningHours":"<ul id=\"openingHrs\"><li>Monday - Friday<span>7am - 10pm</span></li><li>Saturday<span>7am - 10pm</span></li><li>Sunday<span>8am - 8pm</span></li></ul>","OpeningHoursJson":[{"Day":"Monday - Friday","Time":"7am - 10pm"},{"Day":"Saturday","Time":"7am - 10pm"},{"Day":"Sunday","Time":"8am - 8pm"}],"ExceptionalHoursJson":[{"Date":"Monday 03 October","Reason":"Queen's Birthday","Details":"8am - 8pm","OpeningTime":null,"ClosingTime":null}],"Id":"4583","StoreName":" Miami","Brand":"2","Latitude":"-28.073834","Longitude":"153.44348","Suburb":"Miami","Postcode":"4220","State":"QLD","Uri":"/store-locator/stores/qld/miami-4583","IsClickCollectStore":"false","Distance":15816.16,"StoreItemNode":null,"TodaysOpenTime":"7am","TodaysClosingTime":"10pm","LocalitiesWithin50km":null,"OpenToday":"7am - 10pm","TodayDate":"01 October 2016"},{"Address":"Bermuda St & Markeri St","PhoneNumber":"(07) 5554 0200","OpeningHours":"<ul id=\"openingHrs\"><li>Monday - Friday<span>8am - 9pm</span></li><li>Saturday<span>8am - 5:30pm</span></li><li>Sunday<span>9am - 6pm</span></li></ul>","OpeningHoursJson":[{"Day":"Monday - Friday","Time":"8am - 9pm"},{"Day":"Saturday","Time":"8am - 5:30pm"},{"Day":"Sunday","Time":"9am - 6pm"}],"ExceptionalHoursJson":[{"Date":"Monday 03 October","Reason":"Queen's Birthday","Details":"9am - 6pm","OpeningTime":null,"ClosingTime":null}],"Id":"8741","StoreName":" Mermaid Waters","Brand":"2","Latitude":"-28.046002","Longitude":"153.407563","Suburb":"Mermaid Waters","Postcode":"4218","State":"QLD","Uri":"/store-locator/stores/qld/mermaid-waters-8741","IsClickCollectStore":"false","Distance":15815.71,"StoreItemNode":null,"TodaysOpenTime":"8am","TodaysClosingTime":"5:30pm","LocalitiesWithin50km":null,"OpenToday":"8am - 5:30pm","TodayDate":"01 October 2016"},{"Address":"92 Horizon Dr","PhoneNumber":"(07) 3723 3800","OpeningHours":"<ul id=\"openingHrs\"><li>Monday - Friday<span>8am - 9pm</span></li><li>Saturday<span>8am - 5pm</span></li><li>Sunday<span>9am - 6pm</span></li></ul>","OpeningHoursJson":[{"Day":"Monday - Friday","Time":"8am - 9pm"},{"Day":"Saturday","Time":"8am - 5pm"},{"Day":"Sunday","Time":"9am - 6pm"}],"ExceptionalHoursJson":[{"Date":"Monday 03 October","Reason":"Queen's Birthday","Details":"9am - 6pm","OpeningTime":null,"ClosingTime":null}],"Id":"4557","StoreName":" Middle Park","Brand":"2","Latitude":"-27.555187","Longitude":"152.922543","Suburb":"Middle Park","Postcode":"4074","State":"QLD","Uri":"/store-locator/stores/qld/middle-park-4557","IsClickCollectStore":"false","Distance":15817.63,"StoreItemNode":null,"TodaysOpenTime":"8am","TodaysClosingTime":"5pm","LocalitiesWithin50km":null,"OpenToday":"8am - 5pm","TodayDate":"01 October 2016"},{"Address":"Venning St & Walan St","PhoneNumber":"(07) 5478 3933","OpeningHours":"<ul id=\"openingHrs\"><li>Monday - Friday<span>8am - 9pm</span></li><li>Saturday<span>8am - 5:30pm</span></li><li>Sunday<span>9am - 6pm</span></li></ul>","OpeningHoursJson":[{"Day":"Monday - Friday","Time":"8am - 9pm"},{"Day":"Saturday","Time":"8am - 5:30pm"},{"Day":"Sunday","Time":"9am - 6pm"}],"ExceptionalHoursJson":[{"Date":"Monday 03 October","Reason":"Queen's Birthday","Details":"9am - 6pm","OpeningTime":null,"ClosingTime":null}],"Id":"4550","StoreName":" Mooloolaba","Brand":"2","Latitude":"-26.679441","Longitude":"153.116187","Suburb":"Mooloolaba","Postcode":"4557","State":"QLD","Uri":"/store-locator/stores/qld/mooloolaba-4550","IsClickCollectStore":"false","Distance":15896.93,"StoreItemNode":null,"TodaysOpenTime":"8am","TodaysClosingTime":"5:30pm","LocalitiesWithin50km":null,"OpenToday":"8am - 5:30pm","TodayDate":"01 October 2016"},{"Address":"Osborne Rd","PhoneNumber":"(07) 3513 9200","OpeningHours":"<ul id=\"openingHrs\"><li>Monday - Friday<span>8am - 9pm</span></li><li>Saturday<span>8am - 5pm</span></li><li>Sunday<span>9am - 6pm</span></li></ul>","OpeningHoursJson":[{"Day":"Monday - Friday","Time":"8am - 9pm"},{"Day":"Saturday","Time":"8am - 5pm"},{"Day":"Sunday","Time":"9am - 6pm"}],"ExceptionalHoursJson":[{"Date":"Monday 03 October","Reason":"Queen's Birthday","Details":"9am - 6pm","OpeningTime":null,"ClosingTime":null}],"Id":"4430","StoreName":" Brookside","Brand":"2","Latitude":"-27.409337","Longitude":"152.980424","Suburb":"Mitchelton","Postcode":"4053","State":"QLD","Uri":"/store-locator/stores/qld/mitchelton-4430","IsClickCollectStore":"false","Distance":15832.75,"StoreItemNode":null,"TodaysOpenTime":"8am","TodaysClosingTime":"5pm","LocalitiesWithin50km":null,"OpenToday":"8am - 5pm","TodayDate":"01 October 2016"},{"Address":"Enoggera Rd & Edmonstone St","PhoneNumber":"(07) 3356 6198","OpeningHours":"<ul id=\"openingHrs\"><li>Monday - Friday<span>8am - 9pm</span></li><li>Saturday<span>8am - 5pm</span></li><li>Sunday<span>9am - 6pm</span></li></ul>","OpeningHoursJson":[{"Day":"Monday - Friday","Time":"8am - 9pm"},{"Day":"Saturday","Time":"8am - 5pm"},{"Day":"Sunday","Time":"9am - 6pm"}],"ExceptionalHoursJson":[{"Date":"Monday 03 October","Reason":"Queen's Birthday","Details":"9am - 6pm","OpeningTime":null,"ClosingTime":null}],"Id":"4528","StoreName":" Newmarket","Brand":"2","Latitude":"-27.437245","Longitude":"153.008206","Suburb":"Newmarket","Postcode":"4051","State":"QLD","Uri":"/store-locator/stores/qld/newmarket-4528","IsClickCollectStore":"false","Distance":15832.7,"StoreItemNode":null,"TodaysOpenTime":"8am","TodaysClosingTime":"5pm","LocalitiesWithin50km":null,"OpenToday":"8am - 5pm","TodayDate":"01 October 2016"},{"Address":"85 Merthyr Rd","PhoneNumber":"(07) 3358 2133","OpeningHours":"<ul id=\"openingHrs\"><li>Monday - Friday<span>7am - 9pm</span></li><li>Saturday - Sunday<span>7am - 9pm</span></li></ul>","OpeningHoursJson":[{"Day":"Monday - Friday","Time":"7am - 9pm"},{"Day":"Saturday - Sunday","Time":"7am - 9pm"}],"ExceptionalHoursJson":[],"Id":"4537","StoreName":" New Farm","Brand":"2","Latitude":"-27.466959","Longitude":"153.047131","Suburb":"New Farm","Postcode":"4005","State":"QLD","Uri":"/store-locator/stores/qld/new-farm-4537","IsClickCollectStore":"false","Distance":15833.33,"StoreItemNode":null,"TodaysOpenTime":"7am","TodaysClosingTime":"9pm","LocalitiesWithin50km":null,"OpenToday":"7am - 9pm","TodayDate":"01 October 2016"},{"Address":"Lanyana Way","PhoneNumber":"(07) 5343 1200","OpeningHours":"<ul id=\"openingHrs\"><li>Monday - Friday<span>8am - 9pm</span></li><li>Saturday<span>8am - 5:30pm</span></li><li>Sunday<span>9am - 6pm</span></li></ul>","OpeningHoursJson":[{"Day":"Monday - Friday","Time":"8am - 9pm"},{"Day":"Saturday","Time":"8am - 5:30pm"},{"Day":"Sunday","Time":"9am - 6pm"}],"ExceptionalHoursJson":[{"Date":"Monday 03 October","Reason":"Queen's Birthday","Details":"9am - 6pm","OpeningTime":null,"ClosingTime":null}],"Id":"4447","StoreName":" Noosa","Brand":"2","Latitude":"-26.398552","Longitude":"153.089076","Suburb":"Noosa Heads","Postcode":"4567","State":"QLD","Uri":"/store-locator/stores/qld/noosa-heads-4447","IsClickCollectStore":"false","Distance":15915.56,"StoreItemNode":null,"TodaysOpenTime":"8am","TodaysClosingTime":"5:30pm","LocalitiesWithin50km":null,"OpenToday":"8am - 5:30pm","TodayDate":"01 October 2016"},{"Address":"Mackay Bucasia Rd & Sologinkins Rd","PhoneNumber":"(07) 4969 7300","OpeningHours":"<ul id=\"openingHrs\"><li>Monday - Friday<span>8am - 9pm</span></li><li>Saturday<span>8am - 5:30pm</span></li><li>Sunday<span>9am - 6pm</span></li></ul>","OpeningHoursJson":[{"Day":"Monday - Friday","Time":"8am - 9pm"},{"Day":"Saturday","Time":"8am - 5:30pm"},{"Day":"Sunday","Time":"9am - 6pm"}],"ExceptionalHoursJson":[{"Date":"Monday 03 October","Reason":"Queen's Birthday","Details":"8:30am - 5:30pm","OpeningTime":null,"ClosingTime":null}],"Id":"4419","StoreName":" Northern Beaches","Brand":"2","Latitude":"-21.065121","Longitude":"149.157944","Suburb":"North Mackay","Postcode":"4740","State":"QLD","Uri":"/store-locator/stores/qld/north-mackay-4419","IsClickCollectStore":"false","Distance":15941.92,"StoreItemNode":null,"TodaysOpenTime":"8am","TodaysClosingTime":"5:30pm","LocalitiesWithin50km":null,"OpenToday":"8am - 5:30pm","TodayDate":"01 October 2016"},{"Address":"The Terrace","PhoneNumber":"(07) 3281 3496","OpeningHours":"<ul id=\"openingHrs\"><li>Monday - Friday<span>7am - 9pm</span></li><li>Saturday<span>7am - 7pm</span></li><li>Sunday<span>9am - 6pm</span></li></ul>","OpeningHoursJson":[{"Day":"Monday - Friday","Time":"7am - 9pm"},{"Day":"Saturday","Time":"7am - 7pm"},{"Day":"Sunday","Time":"9am - 6pm"}],"ExceptionalHoursJson":[{"Date":"Monday 03 October","Reason":"Queen's Birthday","Details":"9am - 6pm","OpeningTime":null,"ClosingTime":null}],"Id":"4596","StoreName":" Ipswich Riverlink","Brand":"2","Latitude":"-27.609118","Longitude":"152.760703","Suburb":"North Ipswich","Postcode":"4305","State":"QLD","Uri":"/store-locator/stores/qld/north-ipswich-4596","IsClickCollectStore":"true","Distance":15801.75,"StoreItemNode":null,"TodaysOpenTime":"7am","TodaysClosingTime":"7pm","LocalitiesWithin50km":null,"OpenToday":"7am - 7pm","TodayDate":"01 October 2016"},{"Address":"74 - 98  Beaudesert-Nerang Rd","PhoneNumber":"(07) 5527 3166","OpeningHours":"<ul id=\"openingHrs\"><li>Monday - Friday<span>8am - 9pm</span></li><li>Saturday<span>8am - 5:30pm</span></li><li>Sunday<span>9am - 6pm</span></li></ul>","OpeningHoursJson":[{"Day":"Monday - Friday","Time":"8am - 9pm"},{"Day":"Saturday","Time":"8am - 5:30pm"},{"Day":"Sunday","Time":"9am - 6pm"}],"ExceptionalHoursJson":[{"Date":"Monday 03 October","Reason":"Queen's Birthday","Details":"9am - 6pm","OpeningTime":null,"ClosingTime":null}],"Id":"4560","StoreName":" Nerang Fair","Brand":"2","Latitude":"-27.993861","Longitude":"153.331722","Suburb":"Nerang","Postcode":"4211","State":"QLD","Uri":"/store-locator/stores/qld/nerang-4560","IsClickCollectStore":"false","Distance":15814.24,"StoreItemNode":null,"TodaysOpenTime":"8am","TodaysClosingTime":"5:30pm","LocalitiesWithin50km":null,"OpenToday":"8am - 5:30pm","TodayDate":"01 October 2016"},{"Address":"Railway St & Link Rd","PhoneNumber":"(07) 5522 9177","OpeningHours":"<ul id=\"openingHrs\"><li>Monday - Friday<span>8am - 9pm</span></li><li>Saturday<span>8am - 5:30pm</span></li><li>Sunday<span>9am - 6pm</span></li></ul>","OpeningHoursJson":[{"Day":"Monday - Friday","Time":"8am - 9pm"},{"Day":"Saturday","Time":"8am - 5:30pm"},{"Day":"Sunday","Time":"9am - 6pm"}],"ExceptionalHoursJson":[{"Date":"Monday 03 October","Reason":"Queen's Birthday","Details":"9am - 6pm","OpeningTime":null,"ClosingTime":null}],"Id":"4597","StoreName":" Mudgeeraba","Brand":"2","Latitude":"-28.080595","Longitude":"153.365189","Suburb":"Mudgeeraba","Postcode":"4213","State":"QLD","Uri":"/store-locator/stores/qld/mudgeeraba-4597","IsClickCollectStore":"false","Distance":15810.04,"StoreItemNode":null,"TodaysOpenTime":"8am","TodaysClosingTime":"5:30pm","LocalitiesWithin50km":null,"OpenToday":"8am - 5:30pm","TodayDate":"01 October 2016"},{"Address":"23 - 30 Mt Warren Blvd","PhoneNumber":"(07) 3382 0122","OpeningHours":"<ul id=\"openingHrs\"><li>Monday - Friday<span>8am - 9pm</span></li><li>Saturday<span>8am - 5pm</span></li><li>Sunday<span>9am - 6pm</span></li></ul>","OpeningHoursJson":[{"Day":"Monday - Friday","Time":"8am - 9pm"},{"Day":"Saturday","Time":"8am - 5pm"},{"Day":"Sunday","Time":"9am - 6pm"}],"ExceptionalHoursJson":[{"Date":"Monday 03 October","Reason":"Queen's Birthday","Details":"9am - 6pm","OpeningTime":null,"ClosingTime":null}],"Id":"4388","StoreName":" Mount Warren Park","Brand":"2","Latitude":"-27.72343","Longitude":"153.196633","Suburb":"Mount Warren Park","Postcode":"4207","State":"QLD","Uri":"/store-locator/stores/qld/mount-warren-park-4360","IsClickCollectStore":"false","Distance":15824.96,"StoreItemNode":null,"TodaysOpenTime":"8am","TodaysClosingTime":"5pm","LocalitiesWithin50km":null,"OpenToday":"8am - 5pm","TodayDate":"01 October 2016"},{"Address":"Dohles Rocks Rd & Goodrich Rd","PhoneNumber":"(07) 3482 0600","OpeningHours":"<ul id=\"openingHrs\"><li>Monday - Friday<span>8am - 9pm</span></li><li>Saturday<span>8am - 5pm</span></li><li>Sunday<span>9am - 6pm</span></li></ul>","OpeningHoursJson":[{"Day":"Monday - Friday","Time":"8am - 9pm"},{"Day":"Saturday","Time":"8am - 5pm"},{"Day":"Sunday","Time":"9am - 6pm"}],"ExceptionalHoursJson":[{"Date":"Monday 03 October","Reason":"Queen's Birthday","Details":"9am - 6pm","OpeningTime":null,"ClosingTime":null}],"Id":"4561","StoreName":" Murrumba Downs","Brand":"2","Latitude":"-27.272699","Longitude":"153.016319","Suburb":"Murrumba Downs","Postcode":"4503","State":"QLD","Uri":"/store-locator/stores/qld/murrumba-downs-4561","IsClickCollectStore":"false","Distance":15845.57,"StoreItemNode":null,"TodaysOpenTime":"8am","TodaysClosingTime":"5pm","LocalitiesWithin50km":null,"OpenToday":"8am - 5pm","TodayDate":"01 October 2016"},{"Address":"Station St & Cayuga Rd","PhoneNumber":"(07) 5578 3322","OpeningHours":"<ul id=\"openingHrs\"><li>Monday - Friday<span>8am - 9pm</span></li><li>Saturday<span>8am - 5:30pm</span></li><li>Sunday<span>9am - 6pm</span></li></ul>","OpeningHoursJson":[{"Day":"Monday - Friday","Time":"8am - 9pm"},{"Day":"Saturday","Time":"8am - 5:30pm"},{"Day":"Sunday","Time":"9am - 6pm"}],"ExceptionalHoursJson":[{"Date":"Monday 03 October","Reason":"Queen's Birthday","Details":"9am - 6pm","OpeningTime":null,"ClosingTime":null}],"Id":"4501","StoreName":" Nerang","Brand":"2","Latitude":"-27.998022","Longitude":"153.338097","Suburb":"Nerang","Postcode":"4211","State":"QLD","Uri":"/store-locator/stores/qld/nerang-4501","IsClickCollectStore":"false","Distance":15814.38,"StoreItemNode":null,"TodaysOpenTime":"8am","TodaysClosingTime":"5:30pm","LocalitiesWithin50km":null,"OpenToday":"8am - 5:30pm","TodayDate":"01 October 2016"},{"Address":"9-13 Mill Street","PhoneNumber":"(07) 5430 4900","OpeningHours":"<ul id=\"openingHrs\"><li>Monday - Friday<span>8am - 9pm</span></li><li>Saturday<span>8am - 5:30pm</span></li><li>Sunday<span>9am - 6pm</span></li></ul>","OpeningHoursJson":[{"Day":"Monday - Friday","Time":"8am - 9pm"},{"Day":"Saturday","Time":"8am - 5:30pm"},{"Day":"Sunday","Time":"9am - 6pm"}],"ExceptionalHoursJson":[{"Date":"Monday 03 October","Reason":"Queen's Birthday","Details":"9am - 6pm","OpeningTime":null,"ClosingTime":null}],"Id":"4438","StoreName":" Nambour","Brand":"2","Latitude":"-26.624974","Longitude":"152.959499","Suburb":"Nambour","Postcode":"4560","State":"QLD","Uri":"/store-locator/stores/qld/nambour-4438","IsClickCollectStore":"false","Distance":15889.25,"StoreItemNode":null,"TodaysOpenTime":"8am","TodaysClosingTime":"5:30pm","LocalitiesWithin50km":null,"OpenToday":"8am - 5:30pm","TodayDate":"01 October 2016"},{"Address":"Wembley Rd & Wilbur St","PhoneNumber":"(07) 3208 9344","OpeningHours":"<ul id=\"openingHrs\"><li>Monday - Friday<span>8am - 9pm</span></li><li>Saturday<span>8am - 5pm</span></li><li>Sunday<span>9am - 6pm</span></li></ul>","OpeningHoursJson":[{"Day":"Monday - Friday","Time":"8am - 9pm"},{"Day":"Saturday","Time":"8am - 5pm"},{"Day":"Sunday","Time":"9am - 6pm"}],"ExceptionalHoursJson":[{"Date":"Monday 03 October","Reason":"Queen's Birthday","Details":"9am - 6pm","OpeningTime":null,"ClosingTime":null}],"Id":"4496","StoreName":" Logan Central","Brand":"2","Latitude":"-27.643138","Longitude":"153.113641","Suburb":"Logan Central","Postcode":"4114","State":"QLD","Uri":"/store-locator/stores/qld/woodridge-4496","IsClickCollectStore":"false","Distance":15824.98,"StoreItemNode":null,"TodaysOpenTime":"8am","TodaysClosingTime":"5pm","LocalitiesWithin50km":null,"OpenToday":"8am - 5pm","TodayDate":"01 October 2016"},{"Address":"Hooper St","PhoneNumber":"(07) 4615 1700","OpeningHours":"<ul id=\"openingHrs\"><li>Monday - Friday<span>8am - 9pm</span></li><li>Saturday<span>8am - 5pm</span></li><li>Sunday<span>9am - 6pm</span></li></ul>","OpeningHoursJson":[{"Day":"Monday - Friday","Time":"8am - 9pm"},{"Day":"Saturday","Time":"8am - 5pm"},{"Day":"Sunday","Time":"9am - 6pm"}],"ExceptionalHoursJson":[{"Date":"Monday 03 October","Reason":"Queen's Birthday","Details":"8:30am - 5:30pm","OpeningTime":null,"ClosingTime":null}],"Id":"4433","StoreName":" Wilsonton","Brand":"2","Latitude":"-27.542862","Longitude":"151.925822","Suburb":"Wilsonton","Postcode":"4350","State":"QLD","Uri":"/store-locator/stores/qld/wilsonton-4433","IsClickCollectStore":"true","Distance":15744.91,"StoreItemNode":null,"TodaysOpenTime":"8am","TodaysClosingTime":"5pm","LocalitiesWithin50km":null,"OpenToday":"8am - 5pm","TodayDate":"01 October 2016"},{"Address":"795 Stanley St","PhoneNumber":"(07) 3896 5000","OpeningHours":"<ul id=\"openingHrs\"><li>Monday - Friday<span>8am - 9pm</span></li><li>Saturday<span>8am - 5pm</span></li><li>Sunday<span>9am - 6pm</span></li></ul>","OpeningHoursJson":[{"Day":"Monday - Friday","Time":"8am - 9pm"},{"Day":"Saturday","Time":"8am - 5pm"},{"Day":"Sunday","Time":"9am - 6pm"}],"ExceptionalHoursJson":[{"Date":"Monday 03 October","Reason":"Queen's Birthday","Details":"9am - 6pm","OpeningTime":null,"ClosingTime":null}],"Id":"4571","StoreName":" Woolloongabba","Brand":"2","Latitude":"-27.486774","Longitude":"153.034937","Suburb":"Woolloongabba","Postcode":"4102","State":"QLD","Uri":"/store-locator/stores/qld/woolloongabba-4571","IsClickCollectStore":"false","Distance":15830.96,"StoreItemNode":null,"TodaysOpenTime":"8am","TodaysClosingTime":"5pm","LocalitiesWithin50km":null,"OpenToday":"8am - 5pm","TodayDate":"01 October 2016"},{"Address":"132-140 Florence St","PhoneNumber":"(07) 3906 7500","OpeningHours":"<ul id=\"openingHrs\"><li>Monday - Friday<span>8am - 9pm</span></li><li>Saturday<span>8am - 5pm</span></li><li>Sunday<span>9am - 6pm</span></li></ul>","OpeningHoursJson":[{"Day":"Monday - Friday","Time":"8am - 9pm"},{"Day":"Saturday","Time":"8am - 5pm"},{"Day":"Sunday","Time":"9am - 6pm"}],"ExceptionalHoursJson":[{"Date":"Monday 03 October","Reason":"Queen's Birthday","Details":"9am - 6pm","OpeningTime":null,"ClosingTime":null}],"Id":"4451","StoreName":" Wynnum","Brand":"2","Latitude":"-27.445259","Longitude":"153.171546","Suburb":"Wynnum","Postcode":"4178","State":"QLD","Uri":"/store-locator/stores/qld/wynnum-4451","IsClickCollectStore":"false","Distance":15844.05,"StoreItemNode":null,"TodaysOpenTime":"8am","TodaysClosingTime":"5pm","LocalitiesWithin50km":null,"OpenToday":"8am - 5pm","TodayDate":"01 October 2016"},{"Address":"1 Mudgeeraba Rd","PhoneNumber":"(07) 5525 1600","OpeningHours":"<ul id=\"openingHrs\"><li>Monday - Friday<span>8am - 9pm</span></li><li>Saturday<span>8am - 5:30pm</span></li><li>Sunday<span>9am - 6pm</span></li></ul>","OpeningHoursJson":[{"Day":"Monday - Friday","Time":"8am - 9pm"},{"Day":"Saturday","Time":"8am - 5:30pm"},{"Day":"Sunday","Time":"9am - 6pm"}],"ExceptionalHoursJson":[{"Date":"Monday 03 October","Reason":"Queen's Birthday","Details":"9am - 6pm","OpeningTime":null,"ClosingTime":null}],"Id":"4572","StoreName":" Worongary","Brand":"2","Latitude":"-28.049353","Longitude":"153.353855","Suburb":"Worongary","Postcode":"4213","State":"QLD","Uri":"/store-locator/stores/qld/worongary-4572","IsClickCollectStore":"false","Distance":15811.61,"StoreItemNode":null,"TodaysOpenTime":"8am","TodaysClosingTime":"5:30pm","LocalitiesWithin50km":null,"OpenToday":"8am - 5:30pm","TodayDate":"01 October 2016"},{"Address":"Mollison St & Boundary Rd","PhoneNumber":"(07) 3844 1677","OpeningHours":"<ul id=\"openingHrs\"><li>Monday - Friday<span>8am - 9pm</span></li><li>Saturday<span>8am - 5pm</span></li><li>Sunday<span>9am - 6pm</span></li></ul>","OpeningHoursJson":[{"Day":"Monday - Friday","Time":"8am - 9pm"},{"Day":"Saturday","Time":"8am - 5pm"},{"Day":"Sunday","Time":"9am - 6pm"}],"ExceptionalHoursJson":[{"Date":"Monday 03 October","Reason":"Queen's Birthday","Details":"9am - 6pm","OpeningTime":null,"ClosingTime":null}],"Id":"4553","StoreName":" West End","Brand":"2","Latitude":"-27.476585","Longitude":"153.011324","Suburb":"West End","Postcode":"4101","State":"QLD","Uri":"/store-locator/stores/qld/west-end-4553","IsClickCollectStore":"false","Distance":15829.99,"StoreItemNode":null,"TodaysOpenTime":"8am","TodaysClosingTime":"5pm","LocalitiesWithin50km":null,"OpenToday":"8am - 5pm","TodayDate":"01 October 2016"},{"Address":"1932 Logan Rd","PhoneNumber":"(07) 3420 7800","OpeningHours":"<ul id=\"openingHrs\"><li>Monday - Friday<span>8am - 9pm</span></li><li>Saturday<span>8am - 5pm</span></li><li>Sunday<span>9am - 6pm</span></li></ul>","OpeningHoursJson":[{"Day":"Monday - Friday","Time":"8am - 9pm"},{"Day":"Saturday","Time":"8am - 5pm"},{"Day":"Sunday","Time":"9am - 6pm"}],"ExceptionalHoursJson":[{"Date":"Monday 03 October","Reason":"Queen's Birthday","Details":"9am - 6pm","OpeningTime":null,"ClosingTime":null}],"Id":"4595","StoreName":" Upper Mount Gravatt","Brand":"2","Latitude":"-27.557864","Longitude":"153.081051","Suburb":"Upper Mount Gravatt","Postcode":"4122","State":"QLD","Uri":"/store-locator/stores/qld/upper-mount-gravatt-4595","IsClickCollectStore":"false","Distance":15829.0,"StoreItemNode":null,"TodaysOpenTime":"8am","TodaysClosingTime":"5pm","LocalitiesWithin50km":null,"OpenToday":"8am - 5pm","TodayDate":"01 October 2016"},{"Address":"Cnr Kessels & Logan Rds","PhoneNumber":"(07) 3422 2066","OpeningHours":"<ul id=\"openingHrs\"><li>Monday - Friday<span>8am - 9pm</span></li><li>Saturday<span>8am - 5pm</span></li><li>Sunday<span>9am - 6pm</span></li></ul>","OpeningHoursJson":[{"Day":"Monday - Friday","Time":"8am - 9pm"},{"Day":"Saturday","Time":"8am - 5pm"},{"Day":"Sunday","Time":"9am - 6pm"}],"ExceptionalHoursJson":[{"Date":"Monday 03 October","Reason":"Queen's Birthday","Details":"9am - 6pm","OpeningTime":null,"ClosingTime":null}],"Id":"4570","StoreName":" Mount Gravatt","Brand":"2","Latitude":"-27.562934","Longitude":"153.081612","Suburb":"Upper Mount Gravatt","Postcode":"4122","State":"QLD","Uri":"/store-locator/stores/qld/upper-mount-gravatt-4570","IsClickCollectStore":"false","Distance":15828.66,"StoreItemNode":null,"TodaysOpenTime":"8am","TodaysClosingTime":"5pm","LocalitiesWithin50km":null,"OpenToday":"8am - 5pm","TodayDate":"01 October 2016"},{"Address":"Cnr Bunker Rd & Redland Bay Rd","PhoneNumber":"(07) 3820 5000","OpeningHours":"<ul id=\"openingHrs\"><li>Monday - Friday<span>8am - 9pm</span></li><li>Saturday<span>8am - 5pm</span></li><li>Sunday<span>9am - 6pm</span></li></ul>","OpeningHoursJson":[{"Day":"Monday - Friday","Time":"8am - 9pm"},{"Day":"Saturday","Time":"8am - 5pm"},{"Day":"Sunday","Time":"9am - 6pm"}],"ExceptionalHoursJson":[{"Date":"Monday 03 October","Reason":"Queen's Birthday","Details":"9am - 6pm","OpeningTime":null,"ClosingTime":null}],"Id":"8729","StoreName":" Victoria Point","Brand":"2","Latitude":"-27.586967","Longitude":"153.280343","Suburb":"Victoria Point","Postcode":"4165","State":"QLD","Uri":"/store-locator/stores/qld/victoria-point-8729","IsClickCollectStore":"false","Distance":15841.32,"StoreItemNode":null,"TodaysOpenTime":"8am","TodaysClosingTime":"5pm","LocalitiesWithin50km":null,"OpenToday":"8am - 5pm","TodayDate":"01 October 2016"},{"Address":"Kingston Rd & Tygum Rd","PhoneNumber":"(07) 3805 5500","OpeningHours":"<ul id=\"openingHrs\"><li>Monday - Friday<span>8am - 9pm</span></li><li>Saturday<span>8am - 5pm</span></li><li>Sunday<span>9am - 6pm</span></li></ul>","OpeningHoursJson":[{"Day":"Monday - Friday","Time":"8am - 9pm"},{"Day":"Saturday","Time":"8am - 5pm"},{"Day":"Sunday","Time":"9am - 6pm"}],"ExceptionalHoursJson":[{"Date":"Monday 03 October","Reason":"Queen's Birthday","Details":"9am - 6pm","OpeningTime":null,"ClosingTime":null}],"Id":"8757","StoreName":" Waterford","Brand":"2","Latitude":"-27.692687","Longitude":"153.134792","Suburb":"Waterford","Postcode":"4133","State":"QLD","Uri":"/store-locator/stores/qld/waterford-8757","IsClickCollectStore":"false","Distance":15822.79,"StoreItemNode":null,"TodaysOpenTime":"8am","TodaysClosingTime":"5pm","LocalitiesWithin50km":null,"OpenToday":"8am - 5pm","TodayDate":"01 October 2016"},{"Address":"1 Main Street","PhoneNumber":"(07) 3470 3100","OpeningHours":"<ul id=\"openingHrs\"><li>Monday - Friday<span>8am - 9pm</span></li><li>Saturday<span>8am - 5pm</span></li><li>Sunday<span>9am - 6pm</span></li></ul>","OpeningHoursJson":[{"Day":"Monday - Friday","Time":"8am - 9pm"},{"Day":"Saturday","Time":"8am - 5pm"},{"Day":"Sunday","Time":"9am - 6pm"}],"ExceptionalHoursJson":[{"Date":"Monday 03 October","Reason":"Queen's Birthday","Details":"9am - 6pm","OpeningTime":null,"ClosingTime":null}],"Id":"4666","StoreName":" Springfield Orion","Brand":"2","Latitude":"-27.676358","Longitude":"152.902936","Suburb":"Springfield Lakes","Postcode":"4300","State":"QLD","Uri":"/store-locator/stores/qld/springfield-lakes-4666","IsClickCollectStore":"true","Distance":15807.14,"StoreItemNode":null,"TodaysOpenTime":"8am","TodaysClosingTime":"5pm","LocalitiesWithin50km":null,"OpenToday":"8am - 5pm","TodayDate":"01 October 2016"},{"Address":"245 Bridge Rd (cnr Paradise St)","PhoneNumber":"(07) 4847 1500","OpeningHours":"<ul id=\"openingHrs\"><li>Monday - Friday<span>8am - 9pm</span></li><li>Saturday<span>8am - 5:30pm</span></li><li>Sunday<span>9am - 6pm</span></li></ul>","OpeningHoursJson":[{"Day":"Monday - Friday","Time":"8am - 9pm"},{"Day":"Saturday","Time":"8am - 5:30pm"},{"Day":"Sunday","Time":"9am - 6pm"}],"ExceptionalHoursJson":[{"Date":"Monday 03 October","Reason":"Queen's Birthday","Details":"8:30am - 5:30pm","OpeningTime":null,"ClosingTime":null}],"Id":"4425","StoreName":" Mackay (parkside)","Brand":"2","Latitude":"-21.157713","Longitude":"149.170531","Suburb":"West Mackay","Postcode":"4740","State":"QLD","Uri":"/store-locator/stores/qld/west-mackay-4425","IsClickCollectStore":"false","Distance":15937.72,"StoreItemNode":null,"TodaysOpenTime":"8am","TodaysClosingTime":"5:30pm","LocalitiesWithin50km":null,"OpenToday":"8am - 5:30pm","TodayDate":"01 October 2016"},{"Address":"Heidke St & Bolewski St","PhoneNumber":"(07) 4151 5500","OpeningHours":"<ul id=\"openingHrs\"><li>Monday - Friday<span>8am - 9pm</span></li><li>Saturday<span>8am - 5pm</span></li><li>Sunday<span>9am - 6pm</span></li></ul>","OpeningHoursJson":[{"Day":"Monday - Friday","Time":"8am - 9pm"},{"Day":"Saturday","Time":"8am - 5pm"},{"Day":"Sunday","Time":"9am - 6pm"}],"ExceptionalHoursJson":[{"Date":"Monday 03 October","Reason":"Queen's Birthday","Details":"8:30am - 5:30pm","OpeningTime":null,"ClosingTime":null}],"Id":"4661","StoreName":" Bundaberg","Brand":"2","Latitude":"-24.88622","Longitude":"152.320453","Suburb":"Avoca","Postcode":"4670","State":"QLD","Uri":"/store-locator/stores/qld/avoca-4661","IsClickCollectStore":"false","Distance":15964.61,"StoreItemNode":null,"TodaysOpenTime":"8am","TodaysClosingTime":"5pm","LocalitiesWithin50km":null,"OpenToday":"8am - 5pm","TodayDate":"01 October 2016"},{"Address":"Logan Road","PhoneNumber":"(07) 3452 6400","OpeningHours":"<ul id=\"openingHrs\"><li>Monday - Friday<span>8am - 9pm</span></li><li>Saturday<span>8am - 5pm</span></li><li>Sunday<span>9am - 6pm</span></li></ul>","OpeningHoursJson":[{"Day":"Monday - Friday","Time":"8am - 9pm"},{"Day":"Saturday","Time":"8am - 5pm"},{"Day":"Sunday","Time":"9am - 6pm"}],"ExceptionalHoursJson":[{"Date":"Monday 03 October","Reason":"Queen's Birthday","Details":"9am - 6pm","OpeningTime":null,"ClosingTime":null}],"Id":"4392","StoreName":" Mount Gravatt Plaza","Brand":"2","Latitude":"-27.539206","Longitude":"153.082318","Suburb":"Mount Gravatt","Postcode":"4122","State":"QLD","Uri":"/store-locator/stores/qld/mount-gravatt-4392","IsClickCollectStore":"false","Distance":15830.49,"StoreItemNode":null,"TodaysOpenTime":"8am","TodaysClosingTime":"5pm","LocalitiesWithin50km":null,"OpenToday":"8am - 5pm","TodayDate":"01 October 2016"},{"Address":"Alice St & Lennox St","PhoneNumber":"(07) 4121 0337","OpeningHours":"<ul id=\"openingHrs\"><li>Monday - Friday<span>8am - 9pm</span></li><li>Saturday<span>8am - 5:30pm</span></li><li>Sunday<span>9am - 6pm</span></li></ul>","OpeningHoursJson":[{"Day":"Monday - Friday","Time":"8am - 9pm"},{"Day":"Saturday","Time":"8am - 5:30pm"},{"Day":"Sunday","Time":"9am - 6pm"}],"ExceptionalHoursJson":[{"Date":"Monday 03 October","Reason":"Queen's Birthday","Details":"8:30am - 5:30pm","OpeningTime":null,"ClosingTime":null}],"Id":"4659","StoreName":" Maryborough","Brand":"2","Latitude":"-25.539169","Longitude":"152.698812","Suburb":"Maryborough","Postcode":"4650","State":"QLD","Uri":"/store-locator/stores/qld/maryborough-4659","IsClickCollectStore":"false","Distance":15948.06,"StoreItemNode":null,"TodaysOpenTime":"8am","TodaysClosingTime":"5:30pm","LocalitiesWithin50km":null,"OpenToday":"8am - 5:30pm","TodayDate":"01 October 2016"},{"Address":"Hooker Blvd","PhoneNumber":"(07) 5504 3400","OpeningHours":"<ul id=\"openingHrs\"><li>Monday - Friday<span>7am - 10pm</span></li><li>Saturday<span>7am - 10pm</span></li><li>Sunday<span>8am - 8pm</span></li></ul>","OpeningHoursJson":[{"Day":"Monday - Friday","Time":"7am - 10pm"},{"Day":"Saturday","Time":"7am - 10pm"},{"Day":"Sunday","Time":"8am - 8pm"}],"ExceptionalHoursJson":[{"Date":"Monday 03 October","Reason":"Queen's Birthday","Details":"8am - 8pm","OpeningTime":null,"ClosingTime":null}],"Id":"4368","StoreName":" Pacific Fair","Brand":"2","Latitude":"-28.035584","Longitude":"153.426561","Suburb":"Broadbeach Waters","Postcode":"4218","State":"QLD","Uri":"/store-locator/stores/qld/broadbeach-waters-4368","IsClickCollectStore":"false","Distance":15817.86,"StoreItemNode":null,"TodaysOpenTime":"7am","TodaysClosingTime":"10pm","LocalitiesWithin50km":null,"OpenToday":"7am - 10pm","TodayDate":"01 October 2016"},{"Address":"64-79 James St","PhoneNumber":"(07) 4939 1266","OpeningHours":"<ul id=\"openingHrs\"><li>Monday - Friday<span>8am - 9pm</span></li><li>Saturday<span>8am - 5:30pm</span></li><li>Sunday<span>10:30am - 5:30pm</span></li></ul>","OpeningHoursJson":[{"Day":"Monday - Friday","Time":"8am - 9pm"},{"Day":"Saturday","Time":"8am - 5:30pm"},{"Day":"Sunday","Time":"10:30am - 5:30pm"}],"ExceptionalHoursJson":[{"Date":"Monday 03 October","Reason":"Queen's Birthday","Details":"8:30am - 5:30pm","OpeningTime":null,"ClosingTime":null}],"Id":"8731","StoreName":" Yeppoon","Brand":"2","Latitude":"-23.128988","Longitude":"150.741236","Suburb":"Yeppoon","Postcode":"4703","State":"QLD","Uri":"/store-locator/stores/qld/yeppoon-8731","IsClickCollectStore":"false","Distance":15953.57,"StoreItemNode":null,"TodaysOpenTime":"8am","TodaysClosingTime":"5:30pm","LocalitiesWithin50km":null,"OpenToday":"8am - 5:30pm","TodayDate":"01 October 2016"},{"Address":"Wynnum Rd","PhoneNumber":"(07) 3396 0088","OpeningHours":"<ul id=\"openingHrs\"><li>Monday - Friday<span>8am - 9pm</span></li><li>Saturday<span>8am - 5pm</span></li><li>Sunday<span>9am - 6pm</span></li></ul>","OpeningHoursJson":[{"Day":"Monday - Friday","Time":"8am - 9pm"},{"Day":"Saturday","Time":"8am - 5pm"},{"Day":"Sunday","Time":"9am - 6pm"}],"ExceptionalHoursJson":[{"Date":"Monday 03 October","Reason":"Queen's Birthday","Details":"9am - 6pm","OpeningTime":null,"ClosingTime":null}],"Id":"4539","StoreName":" Wynnum West","Brand":"2","Latitude":"-27.456476","Longitude":"153.154731","Suburb":"Wynnum West","Postcode":"4178","State":"QLD","Uri":"/store-locator/stores/qld/wynnum-west-4539","IsClickCollectStore":"false","Distance":15841.98,"StoreItemNode":null,"TodaysOpenTime":"8am","TodaysClosingTime":"5pm","LocalitiesWithin50km":null,"OpenToday":"8am - 5pm","TodayDate":"01 October 2016"},{"Address":"Mount Lindsey Highway And Park Ridge Rd","PhoneNumber":"(07) 3380 4800","OpeningHours":"<ul id=\"openingHrs\"><li>Monday - Friday<span>8am - 9pm</span></li><li>Saturday<span>8am - 5pm</span></li><li>Sunday<span>9am - 6pm</span></li></ul>","OpeningHoursJson":[{"Day":"Monday - Friday","Time":"8am - 9pm"},{"Day":"Saturday","Time":"8am - 5pm"},{"Day":"Sunday","Time":"9am - 6pm"}],"ExceptionalHoursJson":[{"Date":"Monday 03 October","Reason":"Queen's Birthday","Details":"9am - 6pm","OpeningTime":null,"ClosingTime":null}],"Id":"4424","StoreName":" Park Ridge","Brand":"2","Latitude":"-27.696806","Longitude":"153.039039","Suburb":"Park Ridge","Postcode":"4118","State":"QLD","Uri":"/store-locator/stores/qld/park-ridge-4424","IsClickCollectStore":"false","Distance":15815.52,"StoreItemNode":null,"TodaysOpenTime":"8am","TodaysClosingTime":"5pm","LocalitiesWithin50km":null,"OpenToday":"8am - 5pm","TodayDate":"01 October 2016"},{"Address":"Connection Road","PhoneNumber":"(07) 4039 5400","OpeningHours":"<ul id=\"openingHrs\"><li>Monday - Friday<span>8am - 9pm</span></li><li>Saturday<span>8am - 5:30pm</span></li><li>Sunday<span>9am - 6pm</span></li></ul>","OpeningHoursJson":[{"Day":"Monday - Friday","Time":"8am - 9pm"},{"Day":"Saturday","Time":"8am - 5:30pm"},{"Day":"Sunday","Time":"9am - 6pm"}],"ExceptionalHoursJson":[{"Date":"Monday 03 October","Reason":"Queen's Birthday","Details":"8:30am - 5:30pm","OpeningTime":null,"ClosingTime":null}],"Id":"4381","StoreName":" Redlynch","Brand":"2","Latitude":"-16.894827","Longitude":"145.700731","Suburb":"Redlynch","Postcode":"4870","State":"QLD","Uri":"/store-locator/stores/qld/redlynch-4381","IsClickCollectStore":"false","Distance":15828.65,"StoreItemNode":null,"TodaysOpenTime":"8am","TodaysClosingTime":"5:30pm","LocalitiesWithin50km":null,"OpenToday":"8am - 5:30pm","TodayDate":"01 October 2016"},{"Address":"11 Ross Street","PhoneNumber":"(07) 5510 7500","OpeningHours":"<ul id=\"openingHrs\"><li>Monday - Friday<span>8am - 9pm</span></li><li>Saturday<span>8am - 5:30pm</span></li><li>Sunday<span>9am - 6pm</span></li></ul>","OpeningHoursJson":[{"Day":"Monday - Friday","Time":"8am - 9pm"},{"Day":"Saturday","Time":"8am - 5:30pm"},{"Day":"Sunday","Time":"9am - 6pm"}],"ExceptionalHoursJson":[{"Date":"Monday 03 October","Reason":"Queen's Birthday","Details":"9am - 6pm","OpeningTime":null,"ClosingTime":null}],"Id":"4390","StoreName":" Benowa Village","Brand":"2","Latitude":"-27.999839","Longitude":"153.376973","Suburb":"Benowa","Postcode":"4217","State":"QLD","Uri":"/store-locator/stores/qld/benowa-4390","IsClickCollectStore":"false","Distance":15817.03,"StoreItemNode":null,"TodaysOpenTime":"8am","TodaysClosingTime":"5:30pm","LocalitiesWithin50km":null,"OpenToday":"8am - 5:30pm","TodayDate":"01 October 2016"},{"Address":"Cnr Of Anzac Rd And Halpine Drive","PhoneNumber":"(07) 3490 3600","OpeningHours":"<ul id=\"openingHrs\"><li>Monday - Friday<span>8am - 9pm</span></li><li>Saturday<span>8am - 5pm</span></li><li>Sunday<span>9am - 6pm</span></li></ul>","OpeningHoursJson":[{"Day":"Monday - Friday","Time":"8am - 9pm"},{"Day":"Saturday","Time":"8am - 5pm"},{"Day":"Sunday","Time":"9am - 6pm"}],"ExceptionalHoursJson":[{"Date":"Monday 03 October","Reason":"Queen's Birthday","Details":"9am - 6pm","OpeningTime":null,"ClosingTime":null}],"Id":"4436","StoreName":" Mango Hill","Brand":"2","Latitude":"-27.24221","Longitude":"153.026038","Suburb":"Mango Hill","Postcode":"4509","State":"QLD","Uri":"/store-locator/stores/qld/mango-hill-4436","IsClickCollectStore":"true","Distance":15848.55,"StoreItemNode":null,"TodaysOpenTime":"8am","TodaysClosingTime":"5pm","LocalitiesWithin50km":null,"OpenToday":"8am - 5pm","TodayDate":"01 October 2016"},{"Address":"Gold Coast Hwy & Elkhorn Ave","PhoneNumber":"(07) 5538 1466","OpeningHours":"<ul id=\"openingHrs\"><li>Monday - Friday<span>7am - 10pm</span></li><li>Saturday<span>7am - 10pm</span></li><li>Sunday<span>8am - 8pm</span></li></ul>","OpeningHoursJson":[{"Day":"Monday - Friday","Time":"7am - 10pm"},{"Day":"Saturday","Time":"7am - 10pm"},{"Day":"Sunday","Time":"8am - 8pm"}],"ExceptionalHoursJson":[{"Date":"Monday 03 October","Reason":"Queen's Birthday","Details":"8am - 8pm","OpeningTime":null,"ClosingTime":null}],"Id":"4554","StoreName":" Surfers Paradise","Brand":"2","Latitude":"-27.999568","Longitude":"153.427935","Suburb":"Surfers Paradise","Postcode":"4217","State":"QLD","Uri":"/store-locator/stores/qld/surfers-paradise-4554","IsClickCollectStore":"false","Distance":15820.7,"StoreItemNode":null,"TodaysOpenTime":"7am","TodaysClosingTime":"10pm","LocalitiesWithin50km":null,"OpenToday":"7am - 10pm","TodayDate":"01 October 2016"},{"Address":"Hampton Drv & Booth Ave","PhoneNumber":"(07) 4973 3788","OpeningHours":"<ul id=\"openingHrs\"><li>Monday - Friday<span>8am - 9pm</span></li><li>Saturday<span>8am - 5pm</span></li><li>Sunday<span>9am - 6pm</span></li></ul>","OpeningHoursJson":[{"Day":"Monday - Friday","Time":"8am - 9pm"},{"Day":"Saturday","Time":"8am - 5pm"},{"Day":"Sunday","Time":"9am - 6pm"}],"ExceptionalHoursJson":[{"Date":"Monday 03 October","Reason":"Queen's Birthday","Details":"8:30am - 5:30pm","OpeningTime":null,"ClosingTime":null}],"Id":"4580","StoreName":" Tannum Sands","Brand":"2","Latitude":"-23.951388","Longitude":"151.369877","Suburb":"Tannum Sands","Postcode":"4680","State":"QLD","Uri":"/store-locator/stores/qld/tannum-sands-4580","IsClickCollectStore":"false","Distance":15951.98,"StoreItemNode":null,"TodaysOpenTime":"8am","TodaysClosingTime":"5pm","LocalitiesWithin50km":null,"OpenToday":"8am - 5pm","TodayDate":"01 October 2016"},{"Address":"312 & 320 Roghan Rd","PhoneNumber":"(07) 3624 3000","OpeningHours":"<ul id=\"openingHrs\"><li>Monday - Friday<span>8am - 9pm</span></li><li>Saturday<span>8am - 5pm</span></li><li>Sunday<span>9am - 6pm</span></li></ul>","OpeningHoursJson":[{"Day":"Monday - Friday","Time":"8am - 9pm"},{"Day":"Saturday","Time":"8am - 5pm"},{"Day":"Sunday","Time":"9am - 6pm"}],"ExceptionalHoursJson":[{"Date":"Monday 03 October","Reason":"Queen's Birthday","Details":"9am - 6pm","OpeningTime":null,"ClosingTime":null}],"Id":"4432","StoreName":" Taigum","Brand":"2","Latitude":"-27.341516","Longitude":"153.042461","Suburb":"Taigum","Postcode":"4018","State":"QLD","Uri":"/store-locator/stores/qld/taigum-4432","IsClickCollectStore":"false","Distance":15842.36,"StoreItemNode":null,"TodaysOpenTime":"8am","TodaysClosingTime":"5pm","LocalitiesWithin50km":null,"OpenToday":"8am - 5pm","TodayDate":"01 October 2016"},{"Address":"Mains Rd & Mccullough St","PhoneNumber":"(07) 3345 4433","OpeningHours":"<ul id=\"openingHrs\"><li>Monday - Friday<span>8am - 9pm</span></li><li>Saturday<span>8am - 5pm</span></li><li>Sunday<span>9am - 6pm</span></li></ul>","OpeningHoursJson":[{"Day":"Monday - Friday","Time":"8am - 9pm"},{"Day":"Saturday","Time":"8am - 5pm"},{"Day":"Sunday","Time":"9am - 6pm"}],"ExceptionalHoursJson":[{"Date":"Monday 03 October","Reason":"Queen's Birthday","Details":"9am - 6pm","OpeningTime":null,"ClosingTime":null}],"Id":"4514","StoreName":" Sunnybank","Brand":"2","Latitude":"-27.571495","Longitude":"153.062942","Suburb":"Sunnybank","Postcode":"4109","State":"QLD","Uri":"/store-locator/stores/qld/sunnybank-4514","IsClickCollectStore":"false","Distance":15826.66,"StoreItemNode":null,"TodaysOpenTime":"8am","TodaysClosingTime":"5pm","LocalitiesWithin50km":null,"OpenToday":"8am - 5pm","TodayDate":"01 October 2016"},{"Address":"Kensington Ave & Soverign Way","PhoneNumber":"(07) 3205 4055","OpeningHours":"<ul id=\"openingHrs\"><li>Monday - Friday<span>8am - 9pm</span></li><li>Saturday<span>8am - 5pm</span></li><li>Sunday<span>9am - 6pm</span></li></ul>","OpeningHoursJson":[{"Day":"Monday - Friday","Time":"8am - 9pm"},{"Day":"Saturday","Time":"8am - 5pm"},{"Day":"Sunday","Time":"9am - 6pm"}],"ExceptionalHoursJson":[{"Date":"Monday 03 October","Reason":"Queen's Birthday","Details":"9am - 6pm","OpeningTime":null,"ClosingTime":null}],"Id":"4480","StoreName":" Bray Park","Brand":"2","Latitude":"-27.297695","Longitude":"152.975929","Suburb":"Strathpine","Postcode":"4500","State":"QLD","Uri":"/store-locator/stores/qld/strathpine-4480","IsClickCollectStore":"false","Distance":15840.74,"StoreItemNode":null,"TodaysOpenTime":"8am","TodaysClosingTime":"5pm","LocalitiesWithin50km":null,"OpenToday":"8am - 5pm","TodayDate":"01 October 2016"},{"Address":"Beenleigh Rd & Pine Rd","PhoneNumber":"(07) 3345 5888","OpeningHours":"<ul id=\"openingHrs\"><li>Monday - Friday<span>8am - 9pm</span></li><li>Saturday<span>8am - 5pm</span></li><li>Sunday<span>9am - 6pm</span></li></ul>","OpeningHoursJson":[{"Day":"Monday - Friday","Time":"8am - 9pm"},{"Day":"Saturday","Time":"8am - 5pm"},{"Day":"Sunday","Time":"9am - 6pm"}],"ExceptionalHoursJson":[{"Date":"Monday 03 October","Reason":"Queen's Birthday","Details":"9am - 6pm","OpeningTime":null,"ClosingTime":null}],"Id":"4489","StoreName":" Pinelands","Brand":"2","Latitude":"-27.590238","Longitude":"153.060663","Suburb":"Sunnybank Hills","Postcode":"4109","State":"QLD","Uri":"/store-locator/stores/qld/sunnybank-hills-4489","IsClickCollectStore":"false","Distance":15825.09,"StoreItemNode":null,"TodaysOpenTime":"8am","TodaysClosingTime":"5pm","LocalitiesWithin50km":null,"OpenToday":"8am - 5pm","TodayDate":"01 October 2016"},{"Address":"6 Central Ave","PhoneNumber":"(07) 4196 9500","OpeningHours":"<ul id=\"openingHrs\"><li>Monday - Friday<span>8am - 9pm</span></li><li>Saturday<span>8am - 5:30pm</span></li><li>Sunday<span>9am - 6pm</span></li></ul>","OpeningHoursJson":[{"Day":"Monday - Friday","Time":"8am - 9pm"},{"Day":"Saturday","Time":"8am - 5:30pm"},{"Day":"Sunday","Time":"9am - 6pm"}],"ExceptionalHoursJson":[{"Date":"Monday 03 October","Reason":"Queen's Birthday","Details":"8:30am - 5:30pm","OpeningTime":null,"ClosingTime":null}],"Id":"4529","StoreName":" Bay Central","Brand":"2","Latitude":"-25.290253","Longitude":"152.834247","Suburb":"Hervey Bay","Postcode":"4655","State":"QLD","Uri":"/store-locator/stores/qld/hervey-bay-4529","IsClickCollectStore":"false","Distance":15976.26,"StoreItemNode":null,"TodaysOpenTime":"8am","TodaysClosingTime":"5:30pm","LocalitiesWithin50km":null,"OpenToday":"8am - 5:30pm","TodayDate":"01 October 2016"},{"Address":"Compton Rd & Calam Rd","PhoneNumber":"(07) 3712 5600","OpeningHours":"<ul id=\"openingHrs\"><li>Monday - Friday<span>8am - 9pm</span></li><li>Saturday<span>8am - 5pm</span></li><li>Sunday<span>9am - 6pm</span></li></ul>","OpeningHoursJson":[{"Day":"Monday - Friday","Time":"8am - 9pm"},{"Day":"Saturday","Time":"8am - 5pm"},{"Day":"Sunday","Time":"9am - 6pm"}],"ExceptionalHoursJson":[{"Date":"Monday 03 October","Reason":"Queen's Birthday","Details":"9am - 6pm","OpeningTime":null,"ClosingTime":null}],"Id":"4671","StoreName":" Sunnybank Hills","Brand":"2","Latitude":"-27.611238","Longitude":"153.055551","Suburb":"Sunnybank Hills","Postcode":"4109","State":"QLD","Uri":"/store-locator/stores/qld/sunnybank-hills-4671","IsClickCollectStore":"false","Distance":15823.14,"StoreItemNode":null,"TodaysOpenTime":"8am","TodaysClosingTime":"5pm","LocalitiesWithin50km":null,"OpenToday":"8am - 5pm","TodayDate":"01 October 2016"},{"Address":"Cnr North St & Ruthven St","PhoneNumber":"(07) 4699 5100","OpeningHours":"<ul id=\"openingHrs\"><li>Monday - Friday<span>8am - 9pm</span></li><li>Saturday<span>8am - 5pm</span></li><li>Sunday<span>9am - 6pm</span></li></ul>","OpeningHoursJson":[{"Day":"Monday - Friday","Time":"8am - 9pm"},{"Day":"Saturday","Time":"8am - 5pm"},{"Day":"Sunday","Time":"9am - 6pm"}],"ExceptionalHoursJson":[{"Date":"Monday 03 October","Reason":"Queen's Birthday","Details":"8:30am - 5:30pm","OpeningTime":null,"ClosingTime":null}],"Id":"4658","StoreName":" Toowoomba North","Brand":"2","Latitude":"-27.540886","Longitude":"151.953405","Suburb":"Toowoomba North","Postcode":"4350","State":"QLD","Uri":"/store-locator/stores/qld/toowoomba-north-4658","IsClickCollectStore":"false","Distance":15747.11,"StoreItemNode":null,"TodaysOpenTime":"8am","TodaysClosingTime":"5pm","LocalitiesWithin50km":null,"OpenToday":"8am - 5pm","TodayDate":"01 October 2016"},{"Address":"Margaret St & Clifford St","PhoneNumber":"(07) 4632 3422","OpeningHours":"<ul id=\"openingHrs\"><li>Monday - Friday<span>8am - 9pm</span></li><li>Saturday<span>8am - 5pm</span></li><li>Sunday<span>9am - 6pm</span></li></ul>","OpeningHoursJson":[{"Day":"Monday - Friday","Time":"8am - 9pm"},{"Day":"Saturday","Time":"8am - 5pm"},{"Day":"Sunday","Time":"9am - 6pm"}],"ExceptionalHoursJson":[{"Date":"Monday 03 October","Reason":"Queen's Birthday","Details":"8:30am - 5:30pm","OpeningTime":null,"ClosingTime":null}],"Id":"4534","StoreName":" Toowoomba","Brand":"2","Latitude":"-27.560992","Longitude":"151.947568","Suburb":"Toowoomba City","Postcode":"4350","State":"QLD","Uri":"/store-locator/stores/qld/toowoomba-city-4534","IsClickCollectStore":"false","Distance":15745.21,"StoreItemNode":null,"TodaysOpenTime":"8am","TodaysClosingTime":"5pm","LocalitiesWithin50km":null,"OpenToday":"8am - 5pm","TodayDate":"01 October 2016"},{"Address":"Ross River Rd & Cross St","PhoneNumber":"(07) 4725 5809","OpeningHours":"<ul id=\"openingHrs\"><li>Monday - Friday<span>8am - 9pm</span></li><li>Saturday<span>8am - 5:30pm</span></li><li>Sunday<span>11am - 6pm</span></li></ul>","OpeningHoursJson":[{"Day":"Monday - Friday","Time":"8am - 9pm"},{"Day":"Saturday","Time":"8am - 5:30pm"},{"Day":"Sunday","Time":"11am - 6pm"}],"ExceptionalHoursJson":[{"Date":"Monday 03 October","Reason":"Queen's Birthday","Details":"8:30am - 5:30pm","OpeningTime":null,"ClosingTime":null}],"Id":"4526","StoreName":" Rising Sun","Brand":"2","Latitude":"-19.29252","Longitude":"146.794544","Suburb":"Townsville","Postcode":"4812","State":"QLD","Uri":"/store-locator/stores/qld/townsville-4526","IsClickCollectStore":"false","Distance":15821.11,"StoreItemNode":null,"TodaysOpenTime":"8am","TodaysClosingTime":"5:30pm","LocalitiesWithin50km":null,"OpenToday":"8am - 5:30pm","TodayDate":"01 October 2016"},{"Address":"Tamborine Oxenford Rd & Reserve Rd","PhoneNumber":"(07) 5561 8311","OpeningHours":"<ul id=\"openingHrs\"><li>Monday - Friday<span>8am - 9pm</span></li><li>Saturday<span>8am - 5pm</span></li><li>Sunday<span>9am - 6pm</span></li></ul>","OpeningHoursJson":[{"Day":"Monday - Friday","Time":"8am - 9pm"},{"Day":"Saturday","Time":"8am - 5pm"},{"Day":"Sunday","Time":"9am - 6pm"}],"ExceptionalHoursJson":[{"Date":"Monday 03 October","Reason":"Queen's Birthday","Details":"9am - 6pm","OpeningTime":null,"ClosingTime":null}],"Id":"8737","StoreName":" Upper Coomera","Brand":"2","Latitude":"-27.900032","Longitude":"153.284003","Suburb":"Upper Coomera","Postcode":"4210","State":"QLD","Uri":"/store-locator/stores/qld/upper-coomera-8737","IsClickCollectStore":"false","Distance":15817.93,"StoreItemNode":null,"TodaysOpenTime":"8am","TodaysClosingTime":"5pm","LocalitiesWithin50km":null,"OpenToday":"8am - 5pm","TodayDate":"01 October 2016"},{"Address":"72 Reserve Rd","PhoneNumber":"(07) 5500 0256","OpeningHours":"<ul id=\"openingHrs\"><li>Monday - Friday<span>8am - 9pm</span></li><li>Saturday<span>8am - 5pm</span></li><li>Sunday<span>9am - 6pm</span></li></ul>","OpeningHoursJson":[{"Day":"Monday - Friday","Time":"8am - 9pm"},{"Day":"Saturday","Time":"8am - 5pm"},{"Day":"Sunday","Time":"9am - 6pm"}],"ExceptionalHoursJson":[{"Date":"Monday 03 October","Reason":"Queen's Birthday","Details":"9am - 6pm","OpeningTime":null,"ClosingTime":null}],"Id":"4576","StoreName":" Upper Coomera","Brand":"2","Latitude":"-27.869582","Longitude":"153.305545","Suburb":"Upper Coomera","Postcode":"4210","State":"QLD","Uri":"/store-locator/stores/qld/upper-coomera-4576","IsClickCollectStore":"false","Distance":15821.79,"StoreItemNode":null,"TodaysOpenTime":"8am","TodaysClosingTime":"5pm","LocalitiesWithin50km":null,"OpenToday":"8am - 5pm","TodayDate":"01 October 2016"},{"Address":"Cnr Anzac Av & James St","PhoneNumber":"(07) 4615 0500","OpeningHours":"<ul id=\"openingHrs\"><li>Monday - Friday<span>8am - 9pm</span></li><li>Saturday<span>8am - 5pm</span></li><li>Sunday<span>9am - 6pm</span></li></ul>","OpeningHoursJson":[{"Day":"Monday - Friday","Time":"8am - 9pm"},{"Day":"Saturday","Time":"8am - 5pm"},{"Day":"Sunday","Time":"9am - 6pm"}],"ExceptionalHoursJson":[{"Date":"Monday 03 October","Reason":"Queen's Birthday","Details":"8:30am - 5:30pm","OpeningTime":null,"ClosingTime":null}],"Id":"4645","StoreName":" Clifford Gardens","Brand":"2","Latitude":"-27.565392","Longitude":"151.930776","Suburb":"Toowoomba","Postcode":"4350","State":"QLD","Uri":"/store-locator/stores/qld/toowoomba-4645","IsClickCollectStore":"false","Distance":15743.64,"StoreItemNode":null,"TodaysOpenTime":"8am","TodaysClosingTime":"5pm","LocalitiesWithin50km":null,"OpenToday":"8am - 5pm","TodayDate":"01 October 2016"},{"Address":"1000 Waterworks Rd","PhoneNumber":"(07) 3300 3144","OpeningHours":"<ul id=\"openingHrs\"><li>Monday - Friday<span>8am - 9pm</span></li><li>Saturday<span>8am - 5pm</span></li><li>Sunday<span>9am - 6pm</span></li></ul>","OpeningHoursJson":[{"Day":"Monday - Friday","Time":"8am - 9pm"},{"Day":"Saturday","Time":"8am - 5pm"},{"Day":"Sunday","Time":"9am - 6pm"}],"ExceptionalHoursJson":[{"Date":"Monday 03 October","Reason":"Queen's Birthday","Details":"9am - 6pm","OpeningTime":null,"ClosingTime":null}],"Id":"4506","StoreName":" The Gap","Brand":"2","Latitude":"-27.445674","Longitude":"152.952426","Suburb":"The Gap","Postcode":"4061","State":"QLD","Uri":"/store-locator/stores/qld/the-gap-4506","IsClickCollectStore":"false","Distance":15827.99,"StoreItemNode":null,"TodaysOpenTime":"8am","TodaysClosingTime":"5pm","LocalitiesWithin50km":null,"OpenToday":"8am - 5pm","TodayDate":"01 October 2016"},{"Address":"1015 Sandgate Rd","PhoneNumber":"(07) 3370 2100","OpeningHours":"<ul id=\"openingHrs\"><li>Monday - Friday<span>8am - 9pm</span></li><li>Saturday<span>8am - 5pm</span></li><li>Sunday<span>9am - 6pm</span></li></ul>","OpeningHoursJson":[{"Day":"Monday - Friday","Time":"8am - 9pm"},{"Day":"Saturday","Time":"8am - 5pm"},{"Day":"Sunday","Time":"9am - 6pm"}],"ExceptionalHoursJson":[{"Date":"Monday 03 October","Reason":"Queen's Birthday","Details":"9am - 6pm","OpeningTime":null,"ClosingTime":null}],"Id":"4458","StoreName":" Toombul","Brand":"2","Latitude":"-27.409255","Longitude":"153.060581","Suburb":"Toombul","Postcode":"4012","State":"QLD","Uri":"/store-locator/stores/qld/toombul-4458","IsClickCollectStore":"false","Distance":15838.63,"StoreItemNode":null,"TodaysOpenTime":"8am","TodaysClosingTime":"5pm","LocalitiesWithin50km":null,"OpenToday":"8am - 5pm","TodayDate":"01 October 2016"},{"Address":"Ruthven St & Stenner St","PhoneNumber":"(07) 4635 5411","OpeningHours":"<ul id=\"openingHrs\"><li>Monday - Friday<span>8am - 9pm</span></li><li>Saturday<span>8am - 5pm</span></li><li>Sunday<span>9am - 6pm</span></li></ul>","OpeningHoursJson":[{"Day":"Monday - Friday","Time":"8am - 9pm"},{"Day":"Saturday","Time":"8am - 5pm"},{"Day":"Sunday","Time":"9am - 6pm"}],"ExceptionalHoursJson":[{"Date":"Monday 03 October","Reason":"Queen's Birthday","Details":"8:30am - 5:30pm","OpeningTime":null,"ClosingTime":null}],"Id":"4491","StoreName":" Toowoomba South","Brand":"2","Latitude":"-27.594574","Longitude":"151.94834","Suburb":"Toowoomba","Postcode":"4350","State":"QLD","Uri":"/store-locator/stores/qld/toowoomba-4491","IsClickCollectStore":"false","Distance":15742.82,"StoreItemNode":null,"TodaysOpenTime":"8am","TodaysClosingTime":"5pm","LocalitiesWithin50km":null,"OpenToday":"8am - 5pm","TodayDate":"01 October 2016"},{"Address":"Sherwood Rd","PhoneNumber":"(07) 3335 4600","OpeningHours":"<ul id=\"openingHrs\"><li>Monday - Friday<span>8am - 9pm</span></li><li>Saturday<span>8am - 7pm</span></li><li>Sunday<span>9am - 6pm</span></li></ul>","OpeningHoursJson":[{"Day":"Monday - Friday","Time":"8am - 9pm"},{"Day":"Saturday","Time":"8am - 7pm"},{"Day":"Sunday","Time":"9am - 6pm"}],"ExceptionalHoursJson":[{"Date":"Monday 03 October","Reason":"Queen's Birthday","Details":"9am - 6pm","OpeningTime":null,"ClosingTime":null}],"Id":"4508","StoreName":" Toowong","Brand":"2","Latitude":"-27.485174","Longitude":"152.991165","Suburb":"Toowong","Postcode":"4066","State":"QLD","Uri":"/store-locator/stores/qld/toowong-4508","IsClickCollectStore":"false","Distance":15827.88,"StoreItemNode":null,"TodaysOpenTime":"8am","TodaysClosingTime":"7pm","LocalitiesWithin50km":null,"OpenToday":"8am - 7pm","TodayDate":"01 October 2016"},{"Address":"274 Mulgrave Rd","PhoneNumber":"(07) 4051 8766","OpeningHours":"<ul id=\"openingHrs\"><li>Monday - Friday<span>8am - 9pm</span></li><li>Saturday<span>8am - 5:30pm</span></li><li>Sunday<span>9am - 6pm</span></li></ul>","OpeningHoursJson":[{"Day":"Monday - Friday","Time":"8am - 9pm"},{"Day":"Saturday","Time":"8am - 5:30pm"},{"Day":"Sunday","Time":"9am - 6pm"}],"ExceptionalHoursJson":[{"Date":"Monday 03 October","Reason":"Queen's Birthday","Details":"8:30am - 5:30pm","OpeningTime":null,"ClosingTime":null}],"Id":"4443","StoreName":" Westcourt","Brand":"2","Latitude":"-16.934725","Longitude":"145.753055","Suburb":"Cairns","Postcode":"4870","State":"QLD","Uri":"/store-locator/stores/qld/cairns-4443","IsClickCollectStore":"true","Distance":15832.03,"StoreItemNode":null,"TodaysOpenTime":"8am","TodaysClosingTime":"5:30pm","LocalitiesWithin50km":null,"OpenToday":"8am - 5:30pm","TodayDate":"01 October 2016"},{"Address":"Mcleod St & Aplin St","PhoneNumber":"(07) 4040 7400","OpeningHours":"<ul id=\"openingHrs\"><li>Monday - Friday<span>8am - 9pm</span></li><li>Saturday<span>8am - 9pm</span></li><li>Sunday<span>9am - 9pm</span></li></ul>","OpeningHoursJson":[{"Day":"Monday - Friday","Time":"8am - 9pm"},{"Day":"Saturday","Time":"8am - 9pm"},{"Day":"Sunday","Time":"9am - 9pm"}],"ExceptionalHoursJson":[{"Date":"Monday 03 October","Reason":"Queen's Birthday","Details":"8:30am - 5:30pm","OpeningTime":null,"ClosingTime":null}],"Id":"4536","StoreName":" Cairns Central","Brand":"2","Latitude":"-16.924186","Longitude":"145.77053","Suburb":"Cairns","Postcode":"4870","State":"QLD","Uri":"/store-locator/stores/qld/cairns-4536","IsClickCollectStore":"false","Distance":15834.2,"StoreItemNode":null,"TodaysOpenTime":"8am","TodaysClosingTime":"9pm","LocalitiesWithin50km":null,"OpenToday":"8am - 9pm","TodayDate":"01 October 2016"},{"Address":"Creek Rd & Wynnum Rd","PhoneNumber":"(07) 3399 3033","OpeningHours":"<ul id=\"openingHrs\"><li>Monday - Friday<span>8am - 9pm</span></li><li>Saturday<span>8am - 5pm</span></li><li>Sunday<span>9am - 6pm</span></li></ul>","OpeningHoursJson":[{"Day":"Monday - Friday","Time":"8am - 9pm"},{"Day":"Saturday","Time":"8am - 5pm"},{"Day":"Sunday","Time":"9am - 6pm"}],"ExceptionalHoursJson":[{"Date":"Monday 03 October","Reason":"Queen's Birthday","Details":"9am - 6pm","OpeningTime":null,"ClosingTime":null}],"Id":"4464","StoreName":" Cannon Hill","Brand":"2","Latitude":"-27.471571","Longitude":"153.097686","Suburb":"Cannon Hill","Postcode":"4170","State":"QLD","Uri":"/store-locator/stores/qld/cannon-hill-4464","IsClickCollectStore":"false","Distance":15836.68,"StoreItemNode":null,"TodaysOpenTime":"8am","TodaysClosingTime":"5pm","LocalitiesWithin50km":null,"OpenToday":"8am - 5pm","TodayDate":"01 October 2016"},{"Address":"47 Bowman Rd","PhoneNumber":"(07) 5491 3044","OpeningHours":"<ul id=\"openingHrs\"><li>Monday - Friday<span>8am - 9pm</span></li><li>Saturday<span>8am - 5:30pm</span></li><li>Sunday<span>9am - 6pm</span></li></ul>","OpeningHoursJson":[{"Day":"Monday - Friday","Time":"8am - 9pm"},{"Day":"Saturday","Time":"8am - 5:30pm"},{"Day":"Sunday","Time":"9am - 6pm"}],"ExceptionalHoursJson":[{"Date":"Monday 03 October","Reason":"Queen's Birthday","Details":"9am - 6pm","OpeningTime":null,"ClosingTime":null}],"Id":"4478","StoreName":" Caloundra","Brand":"2","Latitude":"-26.802623","Longitude":"153.124466","Suburb":"Caloundra","Postcode":"4551","State":"QLD","Uri":"/store-locator/stores/qld/caloundra-4478","IsClickCollectStore":"false","Distance":15888.44,"StoreItemNode":null,"TodaysOpenTime":"8am","TodaysClosingTime":"5:30pm","LocalitiesWithin50km":null,"OpenToday":"8am - 5:30pm","TodayDate":"01 October 2016"},{"Address":"60 King St","PhoneNumber":"(07) 5495 6711","OpeningHours":"<ul id=\"openingHrs\"><li>Monday - Friday<span>8am - 9pm</span></li><li>Saturday<span>8am - 5pm</span></li><li>Sunday<span>9am - 6pm</span></li></ul>","OpeningHoursJson":[{"Day":"Monday - Friday","Time":"8am - 9pm"},{"Day":"Saturday","Time":"8am - 5pm"},{"Day":"Sunday","Time":"9am - 6pm"}],"ExceptionalHoursJson":[{"Date":"Monday 03 October","Reason":"Queen's Birthday","Details":"9am - 6pm","OpeningTime":null,"ClosingTime":null}],"Id":"4404","StoreName":" Caboolture","Brand":"2","Latitude":"-27.085146","Longitude":"152.948887","Suburb":"Caboolture","Postcode":"4510","State":"QLD","Uri":"/store-locator/stores/qld/caboolture-4404","IsClickCollectStore":"false","Distance":15854.52,"StoreItemNode":null,"TodaysOpenTime":"8am","TodaysClosingTime":"5pm","LocalitiesWithin50km":null,"OpenToday":"8am - 5pm","TodayDate":"01 October 2016"},{"Address":"Point Cartwright Drv & Nicklin Way","PhoneNumber":"(07) 5457 6900","OpeningHours":"<ul id=\"openingHrs\"><li>Monday - Friday<span>8am - 9pm</span></li><li>Saturday<span>8am - 5:30pm</span></li><li>Sunday<span>9am - 6pm</span></li></ul>","OpeningHoursJson":[{"Day":"Monday - Friday","Time":"8am - 9pm"},{"Day":"Saturday","Time":"8am - 5:30pm"},{"Day":"Sunday","Time":"9am - 6pm"}],"ExceptionalHoursJson":[{"Date":"Monday 03 October","Reason":"Queen's Birthday","Details":"9am - 6pm","OpeningTime":null,"ClosingTime":null}],"Id":"4435","StoreName":" Kawana Waters","Brand":"2","Latitude":"-26.703259","Longitude":"153.130467","Suburb":"Buddina","Postcode":"4575","State":"QLD","Uri":"/store-locator/stores/qld/buddina-4435","IsClickCollectStore":"false","Distance":15896.23,"StoreItemNode":null,"TodaysOpenTime":"8am","TodaysClosingTime":"5:30pm","LocalitiesWithin50km":null,"OpenToday":"8am - 5:30pm","TodayDate":"01 October 2016"},{"Address":"Mt Lindesay Hwy & Browns Plains Rd","PhoneNumber":"(07) 3809 3344","OpeningHours":"<ul id=\"openingHrs\"><li>Monday - Friday<span>8am - 9pm</span></li><li>Saturday<span>8am - 5pm</span></li><li>Sunday<span>9am - 6pm</span></li></ul>","OpeningHoursJson":[{"Day":"Monday - Friday","Time":"8am - 9pm"},{"Day":"Saturday","Time":"8am - 5pm"},{"Day":"Sunday","Time":"9am - 6pm"}],"ExceptionalHoursJson":[{"Date":"Monday 03 October","Reason":"Queen's Birthday","Details":"9am - 6pm","OpeningTime":null,"ClosingTime":null}],"Id":"4525","StoreName":" Browns Plains","Brand":"2","Latitude":"-27.662668","Longitude":"153.039323","Suburb":"Browns Plains","Postcode":"4118","State":"QLD","Uri":"/store-locator/stores/qld/browns-plains-4525","IsClickCollectStore":"false","Distance":15818.1,"StoreItemNode":null,"TodaysOpenTime":"8am","TodaysClosingTime":"5pm","LocalitiesWithin50km":null,"OpenToday":"8am - 5pm","TodayDate":"01 October 2016"},{"Address":"George St & Maryborough St","PhoneNumber":"(07) 4155 8200","OpeningHours":"<ul id=\"openingHrs\"><li>Monday - Friday<span>8am - 9pm</span></li><li>Saturday<span>8am - 5pm</span></li><li>Sunday<span>9am - 6pm</span></li></ul>","OpeningHoursJson":[{"Day":"Monday - Friday","Time":"8am - 9pm"},{"Day":"Saturday","Time":"8am - 5pm"},{"Day":"Sunday","Time":"9am - 6pm"}],"ExceptionalHoursJson":[{"Date":"Monday 03 October","Reason":"Queen's Birthday","Details":"8:30am - 5:30pm","OpeningTime":null,"ClosingTime":null}],"Id":"4497","StoreName":" Bundaberg","Brand":"2","Latitude":"-24.871819","Longitude":"152.34841","Suburb":"Bundaberg","Postcode":"4670","State":"QLD","Uri":"/store-locator/stores/qld/bundaberg-4497","IsClickCollectStore":"false","Distance":15967.82,"StoreItemNode":null,"TodaysOpenTime":"8am","TodaysClosingTime":"5pm","LocalitiesWithin50km":null,"OpenToday":"8am - 5pm","TodayDate":"01 October 2016"},{"Address":"164 - 168 Station Rd","PhoneNumber":"(07) 3491 4400","OpeningHours":"<ul id=\"openingHrs\"><li>Monday - Friday<span>8am - 9pm</span></li><li>Saturday<span>8am - 5pm</span></li><li>Sunday<span>9am - 6pm</span></li></ul>","OpeningHoursJson":[{"Day":"Monday - Friday","Time":"8am - 9pm"},{"Day":"Saturday","Time":"8am - 5pm"},{"Day":"Sunday","Time":"9am - 6pm"}],"ExceptionalHoursJson":[{"Date":"Monday 03 October","Reason":"Queen's Birthday","Details":"9am - 6pm","OpeningTime":null,"ClosingTime":null}],"Id":"4582","StoreName":" Burpengary","Brand":"2","Latitude":"-27.153473","Longitude":"152.973745","Suburb":"Burpengary","Postcode":"4505","State":"QLD","Uri":"/store-locator/stores/qld/burpengary-4582","IsClickCollectStore":"false","Distance":15851.29,"StoreItemNode":null,"TodaysOpenTime":"8am","TodaysClosingTime":"5pm","LocalitiesWithin50km":null,"OpenToday":"8am - 5pm","TodayDate":"01 October 2016"},{"Address":"Bermuda St & Reedy Creek Rd","PhoneNumber":"(07) 5593 4107","OpeningHours":"<ul id=\"openingHrs\"><li>Monday - Friday<span>8am - 9pm</span></li><li>Saturday<span>8am - 5:30pm</span></li><li>Sunday<span>9am - 6pm</span></li></ul>","OpeningHoursJson":[{"Day":"Monday - Friday","Time":"8am - 9pm"},{"Day":"Saturday","Time":"8am - 5:30pm"},{"Day":"Sunday","Time":"9am - 6pm"}],"ExceptionalHoursJson":[{"Date":"Monday 03 October","Reason":"Queen's Birthday","Details":"9am - 6pm","OpeningTime":null,"ClosingTime":null}],"Id":"4520","StoreName":" Burleigh Waters","Brand":"2","Latitude":"-28.099602","Longitude":"153.424532","Suburb":"Burleigh Waters","Postcode":"4220","State":"QLD","Uri":"/store-locator/stores/qld/burleigh-waters-4520","IsClickCollectStore":"false","Distance":15812.83,"StoreItemNode":null,"TodaysOpenTime":"8am","TodaysClosingTime":"5:30pm","LocalitiesWithin50km":null,"OpenToday":"8am - 5:30pm","TodayDate":"01 October 2016"},{"Address":"19 Birtwill St & Margaret St","PhoneNumber":"(07) 5343 0000","OpeningHours":"<ul id=\"openingHrs\"><li>Monday - Friday<span>8am - 9pm</span></li><li>Saturday<span>8am - 5:30pm</span></li><li>Sunday<span>9am - 6pm</span></li></ul>","OpeningHoursJson":[{"Day":"Monday - Friday","Time":"8am - 9pm"},{"Day":"Saturday","Time":"8am - 5:30pm"},{"Day":"Sunday","Time":"9am - 6pm"}],"ExceptionalHoursJson":[{"Date":"Monday 03 October","Reason":"Queen's Birthday","Details":"9am - 6pm","OpeningTime":null,"ClosingTime":null}],"Id":"4420","StoreName":" Coolum","Brand":"2","Latitude":"-26.526713","Longitude":"153.088883","Suburb":"Coolum Beach","Postcode":"4573","State":"QLD","Uri":"/store-locator/stores/qld/coolum-beach-4420","IsClickCollectStore":"false","Distance":15906.14,"StoreItemNode":null,"TodaysOpenTime":"8am","TodaysClosingTime":"5:30pm","LocalitiesWithin50km":null,"OpenToday":"8am - 5:30pm","TodayDate":"01 October 2016"},{"Address":"Endeavour St & Captain Cook Hwy","PhoneNumber":"(07) 4059 0622","OpeningHours":"<ul id=\"openingHrs\"><li>Monday - Friday<span>8am - 9pm</span></li><li>Saturday<span>8am - 5:30pm</span></li><li>Sunday<span>9am - 6pm</span></li></ul>","OpeningHoursJson":[{"Day":"Monday - Friday","Time":"8am - 9pm"},{"Day":"Saturday","Time":"8am - 5:30pm"},{"Day":"Sunday","Time":"9am - 6pm"}],"ExceptionalHoursJson":[{"Date":"Monday 03 October","Reason":"Queen's Birthday","Details":"8:30am - 5:30pm","OpeningTime":null,"ClosingTime":null}],"Id":"4581","StoreName":" Clifton Beach","Brand":"2","Latitude":"-16.765079","Longitude":"145.66876","Suburb":"Clifton Beach","Postcode":"4879","State":"QLD","Uri":"/store-locator/stores/qld/clifton-beach-4581","IsClickCollectStore":"false","Distance":15831.15,"StoreItemNode":null,"TodaysOpenTime":"8am","TodaysClosingTime":"5:30pm","LocalitiesWithin50km":null,"OpenToday":"8am - 5:30pm","TodayDate":"01 October 2016"},{"Address":"252 Old Cleveland Rd","PhoneNumber":"(07) 3397 9711","OpeningHours":"<ul id=\"openingHrs\"><li>Monday - Friday<span>8am - 9pm</span></li><li>Saturday<span>8am - 5pm</span></li><li>Sunday<span>9am - 6pm</span></li></ul>","OpeningHoursJson":[{"Day":"Monday - Friday","Time":"8am - 9pm"},{"Day":"Saturday","Time":"8am - 5pm"},{"Day":"Sunday","Time":"9am - 6pm"}],"ExceptionalHoursJson":[{"Date":"Monday 03 October","Reason":"Queen's Birthday","Details":"9am - 6pm","OpeningTime":null,"ClosingTime":null}],"Id":"4467","StoreName":" Coorparoo","Brand":"2","Latitude":"-27.495581","Longitude":"153.056292","Suburb":"Coorparoo","Postcode":"4151","State":"QLD","Uri":"/store-locator/stores/qld/coorparoo-4467","IsClickCollectStore":"false","Distance":15831.86,"StoreItemNode":null,"TodaysOpenTime":"8am","TodaysClosingTime":"5pm","LocalitiesWithin50km":null,"OpenToday":"8am - 5pm","TodayDate":"01 October 2016"},{"Address":"New Condamine St & Patrick St","PhoneNumber":"(07) 4662 1499","OpeningHours":"<ul id=\"openingHrs\"><li>Monday - Friday<span>8am - 9pm</span></li><li>Saturday<span>8am - 5pm</span></li><li>Sunday<span>10:30am - 6pm</span></li></ul>","OpeningHoursJson":[{"Day":"Monday - Friday","Time":"8am - 9pm"},{"Day":"Saturday","Time":"8am - 5pm"},{"Day":"Sunday","Time":"10:30am - 6pm"}],"ExceptionalHoursJson":[{"Date":"Monday 03 October","Reason":"Queen's Birthday","Details":"8:30am - 5:30pm","OpeningTime":null,"ClosingTime":null}],"Id":"4490","StoreName":" Dalby","Brand":"2","Latitude":"-27.179458","Longitude":"151.265549","Suburb":"Dalby","Postcode":"4405","State":"QLD","Uri":"/store-locator/stores/qld/dalby-4490","IsClickCollectStore":"false","Distance":15721.37,"StoreItemNode":null,"TodaysOpenTime":"8am","TodaysClosingTime":"5pm","LocalitiesWithin50km":null,"OpenToday":"8am - 5pm","TodayDate":"01 October 2016"},{"Address":"Oxley Rd & Clewley St","PhoneNumber":"(07) 3379 8199","OpeningHours":"<ul id=\"openingHrs\"><li>Monday - Friday<span>8am - 9pm</span></li><li>Saturday<span>8am - 5pm</span></li><li>Sunday<span>9am - 6pm</span></li></ul>","OpeningHoursJson":[{"Day":"Monday - Friday","Time":"8am - 9pm"},{"Day":"Saturday","Time":"8am - 5pm"},{"Day":"Sunday","Time":"9am - 6pm"}],"ExceptionalHoursJson":[{"Date":"Monday 03 October","Reason":"Queen's Birthday","Details":"9am - 6pm","OpeningTime":null,"ClosingTime":null}],"Id":"4495","StoreName":" Corinda","Brand":"2","Latitude":"-27.538774","Longitude":"152.981966","Suburb":"Corinda","Postcode":"4075","State":"QLD","Uri":"/store-locator/stores/qld/corinda-4495","IsClickCollectStore":"false","Distance":15823.2,"StoreItemNode":null,"TodaysOpenTime":"8am","TodaysClosingTime":"5pm","LocalitiesWithin50km":null,"OpenToday":"8am - 5pm","TodayDate":"01 October 2016"},{"Address":"91 Middle St","PhoneNumber":"(07) 3286 4377","OpeningHours":"<ul id=\"openingHrs\"><li>Monday - Friday<span>8am - 9pm</span></li><li>Saturday<span>8am - 5pm</span></li><li>Sunday<span>9am - 6pm</span></li></ul>","OpeningHoursJson":[{"Day":"Monday - Friday","Time":"8am - 9pm"},{"Day":"Saturday","Time":"8am - 5pm"},{"Day":"Sunday","Time":"9am - 6pm"}],"ExceptionalHoursJson":[{"Date":"Monday 03 October","Reason":"Queen's Birthday","Details":"9am - 6pm","OpeningTime":null,"ClosingTime":null}],"Id":"4540","StoreName":" Cleveland","Brand":"2","Latitude":"-27.526593","Longitude":"153.267779","Suburb":"Cleveland","Postcode":"4163","State":"QLD","Uri":"/store-locator/stores/qld/cleveland-4540","IsClickCollectStore":"false","Distance":15844.95,"StoreItemNode":null,"TodaysOpenTime":"8am","TodaysClosingTime":"5pm","LocalitiesWithin50km":null,"OpenToday":"8am - 5pm","TodayDate":"01 October 2016"},{"Address":"Redland Bay Rd & Mt Cotton Rd","PhoneNumber":"(07) 3900 7500","OpeningHours":"<ul id=\"openingHrs\"><li>Monday - Friday<span>8am - 9pm</span></li><li>Saturday<span>8am - 5pm</span></li><li>Sunday<span>9am - 6pm</span></li></ul>","OpeningHoursJson":[{"Day":"Monday - Friday","Time":"8am - 9pm"},{"Day":"Saturday","Time":"8am - 5pm"},{"Day":"Sunday","Time":"9am - 6pm"}],"ExceptionalHoursJson":[{"Date":"Monday 03 October","Reason":"Queen's Birthday","Details":"9am - 6pm","OpeningTime":null,"ClosingTime":null}],"Id":"4509","StoreName":" Capalaba","Brand":"2","Latitude":"-27.524823","Longitude":"153.191116","Suburb":"Capalaba","Postcode":"4157","State":"QLD","Uri":"/store-locator/stores/qld/capalaba-4509","IsClickCollectStore":"false","Distance":15839.5,"StoreItemNode":null,"TodaysOpenTime":"8am","TodaysClosingTime":"5pm","LocalitiesWithin50km":null,"OpenToday":"8am - 5pm","TodayDate":"01 October 2016"},{"Address":"Shute Harbour Rd & Island Dr","PhoneNumber":"(07) 4946 4869","OpeningHours":"<ul id=\"openingHrs\"><li>Monday - Friday<span>8am - 9pm</span></li><li>Saturday<span>8am - 5:30pm</span></li><li>Sunday<span>9am - 6pm</span></li></ul>","OpeningHoursJson":[{"Day":"Monday - Friday","Time":"8am - 9pm"},{"Day":"Saturday","Time":"8am - 5:30pm"},{"Day":"Sunday","Time":"9am - 6pm"}],"ExceptionalHoursJson":[{"Date":"Monday 03 October","Reason":"Queen's Birthday","Details":"8:30am - 5:30pm","OpeningTime":null,"ClosingTime":null}],"Id":"4598","StoreName":" Cannonvale","Brand":"2","Latitude":"-20.277551","Longitude":"148.699182","Suburb":"Cannonvale","Postcode":"4802","State":"QLD","Uri":"/store-locator/stores/qld/cannonvale-4598","IsClickCollectStore":"true","Distance":15945.01,"StoreItemNode":null,"TodaysOpenTime":"8am","TodaysClosingTime":"5:30pm","LocalitiesWithin50km":null,"OpenToday":"8am - 5:30pm","TodayDate":"01 October 2016"},{"Address":"Moreton Bay Rd","PhoneNumber":"(07) 3900 3700","OpeningHours":"<ul id=\"openingHrs\"><li>Monday - Friday<span>8am - 9pm</span></li><li>Saturday<span>8am - 5pm</span></li><li>Sunday<span>9am - 6pm</span></li></ul>","OpeningHoursJson":[{"Day":"Monday - Friday","Time":"8am - 9pm"},{"Day":"Saturday","Time":"8am - 5pm"},{"Day":"Sunday","Time":"9am - 6pm"}],"ExceptionalHoursJson":[{"Date":"Monday 03 October","Reason":"Queen's Birthday","Details":"9am - 6pm","OpeningTime":null,"ClosingTime":null}],"Id":"8759","StoreName":" Capalaba Central","Brand":"2","Latitude":"-27.523536","Longitude":"153.194583","Suburb":"Capalaba","Postcode":"4157","State":"QLD","Uri":"/store-locator/stores/qld/capalaba-8759","IsClickCollectStore":"false","Distance":15839.85,"StoreItemNode":null,"TodaysOpenTime":"8am","TodaysClosingTime":"5pm","LocalitiesWithin50km":null,"OpenToday":"8am - 5pm","TodayDate":"01 October 2016"},{"Address":"Gympie Rd & Hamilton Rd","PhoneNumber":"(07) 3267 2900","OpeningHours":"<ul id=\"openingHrs\"><li>Monday - Friday<span>8am - 9pm</span></li><li>Saturday<span>8am - 5pm</span></li><li>Sunday<span>9am - 6pm</span></li></ul>","OpeningHoursJson":[{"Day":"Monday - Friday","Time":"8am - 9pm"},{"Day":"Saturday","Time":"8am - 5pm"},{"Day":"Sunday","Time":"9am - 6pm"}],"ExceptionalHoursJson":[{"Date":"Monday 03 October","Reason":"Queen's Birthday","Details":"9am - 6pm","OpeningTime":null,"ClosingTime":null}],"Id":"4547","StoreName":" Chermside","Brand":"2","Latitude":"-27.384266","Longitude":"153.031711","Suburb":"Chermside","Postcode":"4032","State":"QLD","Uri":"/store-locator/stores/qld/chermside-4547","IsClickCollectStore":"false","Distance":15838.38,"StoreItemNode":null,"TodaysOpenTime":"8am","TodaysClosingTime":"5pm","LocalitiesWithin50km":null,"OpenToday":"8am - 5pm","TodayDate":"01 October 2016"},{"Address":"Creek Rd","PhoneNumber":"(07) 3308 6100","OpeningHours":"<ul id=\"openingHrs\"><li>Monday - Friday<span>8am - 9pm</span></li><li>Saturday<span>8am - 5pm</span></li><li>Sunday<span>9am - 6pm</span></li></ul>","OpeningHoursJson":[{"Day":"Monday - Friday","Time":"8am - 9pm"},{"Day":"Saturday","Time":"8am - 5pm"},{"Day":"Sunday","Time":"9am - 6pm"}],"ExceptionalHoursJson":[{"Date":"Monday 03 October","Reason":"Queen's Birthday","Details":"9am - 6pm","OpeningTime":null,"ClosingTime":null}],"Id":"4574","StoreName":" Carindale (westfield)","Brand":"2","Latitude":"-27.502434","Longitude":"153.101564","Suburb":"Carindale","Postcode":"4152","State":"QLD","Uri":"/store-locator/stores/qld/carindale-4574","IsClickCollectStore":"false","Distance":15834.65,"StoreItemNode":null,"TodaysOpenTime":"8am","TodaysClosingTime":"5pm","LocalitiesWithin50km":null,"OpenToday":"8am - 5pm","TodayDate":"01 October 2016"},{"Address":"Daintree Dr & Napper Rd","PhoneNumber":"(07) 5574 6555","OpeningHours":"<ul id=\"openingHrs\"><li>Monday - Friday<span>8am - 9pm</span></li><li>Saturday<span>8am - 5:30pm</span></li><li>Sunday<span>9am - 6pm</span></li></ul>","OpeningHoursJson":[{"Day":"Monday - Friday","Time":"8am - 9pm"},{"Day":"Saturday","Time":"8am - 5:30pm"},{"Day":"Sunday","Time":"9am - 6pm"}],"ExceptionalHoursJson":[{"Date":"Monday 03 October","Reason":"Queen's Birthday","Details":"9am - 6pm","OpeningTime":null,"ClosingTime":null}],"Id":"4555","StoreName":" Arundel","Brand":"2","Latitude":"-27.947296","Longitude":"153.352202","Suburb":"Arundel","Postcode":"4214","State":"QLD","Uri":"/store-locator/stores/qld/arundel-4555","IsClickCollectStore":"false","Distance":15819.25,"StoreItemNode":null,"TodaysOpenTime":"8am","TodaysClosingTime":"5:30pm","LocalitiesWithin50km":null,"OpenToday":"8am - 5:30pm","TodayDate":"01 October 2016"},{"Address":"Patricks Rd & Dawson Pde","PhoneNumber":"(07) 3351 4333","OpeningHours":"<ul id=\"openingHrs\"><li>Monday - Friday<span>8am - 9pm</span></li><li>Saturday<span>8am - 5pm</span></li><li>Sunday<span>9am - 6pm</span></li></ul>","OpeningHoursJson":[{"Day":"Monday - Friday","Time":"8am - 9pm"},{"Day":"Saturday","Time":"8am - 5pm"},{"Day":"Sunday","Time":"9am - 6pm"}],"ExceptionalHoursJson":[{"Date":"Monday 03 October","Reason":"Queen's Birthday","Details":"9am - 6pm","OpeningTime":null,"ClosingTime":null}],"Id":"4492","StoreName":" Arana Hills","Brand":"2","Latitude":"-27.399186","Longitude":"152.958408","Suburb":"Arana Hills","Postcode":"4054","State":"QLD","Uri":"/store-locator/stores/qld/arana-hills-4492","IsClickCollectStore":"false","Distance":15831.89,"StoreItemNode":null,"TodaysOpenTime":"8am","TodaysClosingTime":"5pm","LocalitiesWithin50km":null,"OpenToday":"8am - 5pm","TodayDate":"01 October 2016"},{"Address":"Racecourse Rd & Dobson St","PhoneNumber":"(07) 3868 4788","OpeningHours":"<ul id=\"openingHrs\"><li>Monday - Friday<span>8am - 9pm</span></li><li>Saturday<span>8am - 5pm</span></li><li>Sunday<span>9am - 6pm</span></li></ul>","OpeningHoursJson":[{"Day":"Monday - Friday","Time":"8am - 9pm"},{"Day":"Saturday","Time":"8am - 5pm"},{"Day":"Sunday","Time":"9am - 6pm"}],"ExceptionalHoursJson":[{"Date":"Monday 03 October","Reason":"Queen's Birthday","Details":"9am - 6pm","OpeningTime":null,"ClosingTime":null}],"Id":"4568","StoreName":" Ascot","Brand":"2","Latitude":"-27.435913","Longitude":"153.065101","Suburb":"Ascot","Postcode":"4007","State":"QLD","Uri":"/store-locator/stores/qld/ascot-4568","IsClickCollectStore":"false","Distance":15836.97,"StoreItemNode":null,"TodaysOpenTime":"8am","TodaysClosingTime":"5pm","LocalitiesWithin50km":null,"OpenToday":"8am - 5pm","TodayDate":"01 October 2016"},{"Address":"591 Robinson Rd","PhoneNumber":"(07) 3863 5000","OpeningHours":"<ul id=\"openingHrs\"><li>Monday - Friday<span>8am - 9pm</span></li><li>Saturday<span>8am - 5pm</span></li><li>Sunday<span>9am - 6pm</span></li></ul>","OpeningHoursJson":[{"Day":"Monday - Friday","Time":"8am - 9pm"},{"Day":"Saturday","Time":"8am - 5pm"},{"Day":"Sunday","Time":"9am - 6pm"}],"ExceptionalHoursJson":[{"Date":"Monday 03 October","Reason":"Queen's Birthday","Details":"9am - 6pm","OpeningTime":null,"ClosingTime":null}],"Id":"4556","StoreName":" Aspley","Brand":"2","Latitude":"-27.364667","Longitude":"153.023829","Suburb":"Aspley","Postcode":"4034","State":"QLD","Uri":"/store-locator/stores/qld/aspley-4556","IsClickCollectStore":"false","Distance":15839.26,"StoreItemNode":null,"TodaysOpenTime":"8am","TodaysClosingTime":"5pm","LocalitiesWithin50km":null,"OpenToday":"8am - 5pm","TodayDate":"01 October 2016"},{"Address":"17 Stewart Rd","PhoneNumber":"(07) 3366 5877","OpeningHours":"<ul id=\"openingHrs\"><li>Monday - Friday<span>8am - 9pm</span></li><li>Saturday<span>8am - 5pm</span></li><li>Sunday<span>9am - 6pm</span></li></ul>","OpeningHoursJson":[{"Day":"Monday - Friday","Time":"8am - 9pm"},{"Day":"Saturday","Time":"8am - 5pm"},{"Day":"Sunday","Time":"9am - 6pm"}],"ExceptionalHoursJson":[{"Date":"Monday 03 October","Reason":"Queen's Birthday","Details":"9am - 6pm","OpeningTime":null,"ClosingTime":null}],"Id":"4471","StoreName":" Ashgrove","Brand":"2","Latitude":"-27.444299","Longitude":"152.991819","Suburb":"Ashgrove","Postcode":"4060","State":"QLD","Uri":"/store-locator/stores/qld/ashgrove-4471","IsClickCollectStore":"false","Distance":15830.98,"StoreItemNode":null,"TodaysOpenTime":"8am","TodaysClosingTime":"5pm","LocalitiesWithin50km":null,"OpenToday":"8am - 5pm","TodayDate":"01 October 2016"},{"Address":"University Rd & Macarthur Drv","PhoneNumber":"(07) 4775 7889","OpeningHours":"<ul id=\"openingHrs\"><li>Monday - Friday<span>8am - 9pm</span></li><li>Saturday<span>8am - 5:30pm</span></li><li>Sunday<span>11am - 6pm</span></li></ul>","OpeningHoursJson":[{"Day":"Monday - Friday","Time":"8am - 9pm"},{"Day":"Saturday","Time":"8am - 5:30pm"},{"Day":"Sunday","Time":"11am - 6pm"}],"ExceptionalHoursJson":[{"Date":"Monday 03 October","Reason":"Queen's Birthday","Details":"8:30am - 5:30pm","OpeningTime":null,"ClosingTime":null}],"Id":"4563","StoreName":" Annandale","Brand":"2","Latitude":"-19.317464","Longitude":"146.791614","Suburb":"Annandale","Postcode":"4814","State":"QLD","Uri":"/store-locator/stores/qld/annandale-4563","IsClickCollectStore":"false","Distance":15819.58,"StoreItemNode":null,"TodaysOpenTime":"8am","TodaysClosingTime":"5:30pm","LocalitiesWithin50km":null,"OpenToday":"8am - 5:30pm","TodayDate":"01 October 2016"},{"Address":"26 - 28 Mitchell Street","PhoneNumber":"(07) 4758 5100","OpeningHours":"<ul id=\"openingHrs\"><li>Monday - Friday<span>7am - 9pm</span></li><li>Saturday<span>8am - 6pm</span></li><li>Sunday<span>9am - 6pm</span></li></ul>","OpeningHoursJson":[{"Day":"Monday - Friday","Time":"7am - 9pm"},{"Day":"Saturday","Time":"8am - 6pm"},{"Day":"Sunday","Time":"9am - 6pm"}],"ExceptionalHoursJson":[{"Date":"Monday 03 October","Reason":"Queen's Birthday","Details":"8:30am - 5:30pm","OpeningTime":null,"ClosingTime":null}],"Id":"4649","StoreName":" North Ward","Brand":"2","Latitude":"-19.251879","Longitude":"146.814598","Suburb":"North Ward","Postcode":"4810","State":"QLD","Uri":"/store-locator/stores/qld/north-ward-4649","IsClickCollectStore":"true","Distance":15825.02,"StoreItemNode":null,"TodaysOpenTime":"8am","TodaysClosingTime":"6pm","LocalitiesWithin50km":null,"OpenToday":"8am - 6pm","TodayDate":"01 October 2016"},{"Address":"Robina Town Centre Drive","PhoneNumber":"(07) 5501 6100","OpeningHours":"<ul id=\"openingHrs\"><li>Monday - Friday<span>8am - 9pm</span></li><li>Saturday<span>8am - 5:30pm</span></li><li>Sunday<span>9am - 6pm</span></li></ul>","OpeningHoursJson":[{"Day":"Monday - Friday","Time":"8am - 9pm"},{"Day":"Saturday","Time":"8am - 5:30pm"},{"Day":"Sunday","Time":"9am - 6pm"}],"ExceptionalHoursJson":[{"Date":"Monday 03 October","Reason":"Queen's Birthday","Details":"9am - 6pm","OpeningTime":null,"ClosingTime":null}],"Id":"4427","StoreName":" Robina","Brand":"2","Latitude":"-28.077658","Longitude":"153.386347","Suburb":"Robina","Postcode":"4230","State":"QLD","Uri":"/store-locator/stores/qld/robina-4427","IsClickCollectStore":"false","Distance":15811.78,"StoreItemNode":null,"TodaysOpenTime":"8am","TodaysClosingTime":"5:30pm","LocalitiesWithin50km":null,"OpenToday":"8am - 5:30pm","TodayDate":"01 October 2016"},{"Address":"Ross River Rd & Nathan St","PhoneNumber":"(07) 4779 0655","OpeningHours":"<ul id=\"openingHrs\"><li>Monday - Friday<span>8am - 9pm</span></li><li>Saturday<span>8am - 5:30pm</span></li><li>Sunday<span>11am - 6pm</span></li></ul>","OpeningHoursJson":[{"Day":"Monday - Friday","Time":"8am - 9pm"},{"Day":"Saturday","Time":"8am - 5:30pm"},{"Day":"Sunday","Time":"11am - 6pm"}],"ExceptionalHoursJson":[{"Date":"Monday 03 October","Reason":"Queen's Birthday","Details":"8:30am - 5:30pm","OpeningTime":null,"ClosingTime":null}],"Id":"4494","StoreName":" Aitkenvale","Brand":"2","Latitude":"-19.297842","Longitude":"146.760296","Suburb":"Aitkenvale","Postcode":"4814","State":"QLD","Uri":"/store-locator/stores/qld/aitkenvale-4494","IsClickCollectStore":"true","Distance":15817.63,"StoreItemNode":null,"TodaysOpenTime":"8am","TodaysClosingTime":"5:30pm","LocalitiesWithin50km":null,"OpenToday":"8am - 5:30pm","TodayDate":"01 October 2016"},{"Address":"Albany Creek Rd & Wruck Cres","PhoneNumber":"(07) 3264 4044","OpeningHours":"<ul id=\"openingHrs\"><li>Monday - Friday<span>8am - 9pm</span></li><li>Saturday<span>8am - 5pm</span></li><li>Sunday<span>9am - 6pm</span></li></ul>","OpeningHoursJson":[{"Day":"Monday - Friday","Time":"8am - 9pm"},{"Day":"Saturday","Time":"8am - 5pm"},{"Day":"Sunday","Time":"9am - 6pm"}],"ExceptionalHoursJson":[{"Date":"Monday 03 October","Reason":"Queen's Birthday","Details":"9am - 6pm","OpeningTime":null,"ClosingTime":null}],"Id":"4516","StoreName":" Albany Creek","Brand":"2","Latitude":"-27.346681","Longitude":"152.96859","Suburb":"Albany Creek","Postcode":"4035","State":"QLD","Uri":"/store-locator/stores/qld/albany-creek-4516","IsClickCollectStore":"false","Distance":15836.55,"StoreItemNode":null,"TodaysOpenTime":"8am","TodaysClosingTime":"5pm","LocalitiesWithin50km":null,"OpenToday":"8am - 5pm","TodayDate":"01 October 2016"},{"Address":"Telegraph Rd & Norris Rd","PhoneNumber":"(07) 3261 5566","OpeningHours":"<ul id=\"openingHrs\"><li>Monday - Friday<span>8am - 9pm</span></li><li>Saturday<span>8am - 5pm</span></li><li>Sunday<span>9am - 6pm</span></li></ul>","OpeningHoursJson":[{"Day":"Monday - Friday","Time":"8am - 9pm"},{"Day":"Saturday","Time":"8am - 5pm"},{"Day":"Sunday","Time":"9am - 6pm"}],"ExceptionalHoursJson":[{"Date":"Monday 03 October","Reason":"Queen's Birthday","Details":"9am - 6pm","OpeningTime":null,"ClosingTime":null}],"Id":"4524","StoreName":" Bracken Ridge","Brand":"2","Latitude":"-27.330653","Longitude":"153.026258","Suburb":"Bracken Ridge","Postcode":"4017","State":"QLD","Uri":"/store-locator/stores/qld/bracken-ridge-4524","IsClickCollectStore":"false","Distance":15841.98,"StoreItemNode":null,"TodaysOpenTime":"8am","TodaysClosingTime":"5pm","LocalitiesWithin50km":null,"OpenToday":"8am - 5pm","TodayDate":"01 October 2016"},{"Address":"Benowa Rd & Ashmore Rd","PhoneNumber":"(07) 5597 8600","OpeningHours":"<ul id=\"openingHrs\"><li>Monday - Friday<span>8am - 9pm</span></li><li>Saturday<span>8am - 5:30pm</span></li><li>Sunday<span>9am - 6pm</span></li></ul>","OpeningHoursJson":[{"Day":"Monday - Friday","Time":"8am - 9pm"},{"Day":"Saturday","Time":"8am - 5:30pm"},{"Day":"Sunday","Time":"9am - 6pm"}],"ExceptionalHoursJson":[{"Date":"Monday 03 October","Reason":"Queen's Birthday","Details":"9am - 6pm","OpeningTime":null,"ClosingTime":null}],"Id":"8739","StoreName":" Benowa","Brand":"2","Latitude":"-28.009152","Longitude":"153.391879","Suburb":"Benowa","Postcode":"4217","State":"QLD","Uri":"/store-locator/stores/qld/benowa-8739","IsClickCollectStore":"false","Distance":15817.39,"StoreItemNode":null,"TodaysOpenTime":"8am","TodaysClosingTime":"5:30pm","LocalitiesWithin50km":null,"OpenToday":"8am - 5:30pm","TodayDate":"01 October 2016"},{"Address":"Level E Elizabeth St","PhoneNumber":"(07) 3211 9393","OpeningHours":"<ul id=\"openingHrs\"><li>Monday - Friday<span>7am - 9pm</span></li><li>Saturday<span>8am - 7pm</span></li><li>Sunday<span>9am - 6pm</span></li></ul>","OpeningHoursJson":[{"Day":"Monday - Friday","Time":"7am - 9pm"},{"Day":"Saturday","Time":"8am - 7pm"},{"Day":"Sunday","Time":"9am - 6pm"}],"ExceptionalHoursJson":[{"Date":"Monday 03 October","Reason":"Queen's Birthday","Details":"9am - 6pm","OpeningTime":null,"ClosingTime":null}],"Id":"4564","StoreName":" Myer Express","Brand":"2","Latitude":"-27.470814","Longitude":"153.02455","Suburb":"Brisbane","Postcode":"4000","State":"QLD","Uri":"/store-locator/stores/qld/brisbane-4564","IsClickCollectStore":"false","Distance":15831.39,"StoreItemNode":null,"TodaysOpenTime":"8am","TodaysClosingTime":"7pm","LocalitiesWithin50km":null,"OpenToday":"8am - 7pm","TodayDate":"01 October 2016"},{"Address":"Queen St & Edward St","PhoneNumber":"(07) 3012 7488","OpeningHours":"<ul id=\"openingHrs\"><li>Monday - Friday<span>7am - 9pm</span></li><li>Saturday<span>8am - 7pm</span></li><li>Sunday<span>9am - 6pm</span></li></ul>","OpeningHoursJson":[{"Day":"Monday - Friday","Time":"7am - 9pm"},{"Day":"Saturday","Time":"8am - 7pm"},{"Day":"Sunday","Time":"9am - 6pm"}],"ExceptionalHoursJson":[{"Date":"Monday 03 October","Reason":"Queen's Birthday","Details":"Closed","OpeningTime":null,"ClosingTime":null}],"Id":"4579","StoreName":" Queen Street Cbd","Brand":"2","Latitude":"-27.468222","Longitude":"153.025941","Suburb":"Brisbane","Postcode":"4000","State":"QLD","Uri":"/store-locator/stores/qld/brisbane-4579","IsClickCollectStore":"false","Distance":15831.69,"StoreItemNode":null,"TodaysOpenTime":"8am","TodaysClosingTime":"7pm","LocalitiesWithin50km":null,"OpenToday":"8am - 7pm","TodayDate":"01 October 2016"},{"Address":"Birkin Rd & Moggill Rd","PhoneNumber":"(07) 3202 0100","OpeningHours":"<ul id=\"openingHrs\"><li>Monday - Friday<span>8am - 9pm</span></li><li>Saturday<span>8am - 5pm</span></li><li>Sunday<span>9am - 6pm</span></li></ul>","OpeningHoursJson":[{"Day":"Monday - Friday","Time":"8am - 9pm"},{"Day":"Saturday","Time":"8am - 5pm"},{"Day":"Sunday","Time":"9am - 6pm"}],"ExceptionalHoursJson":[{"Date":"Monday 03 October","Reason":"Queen's Birthday","Details":"9am - 6pm","OpeningTime":null,"ClosingTime":null}],"Id":"4549","StoreName":" Bellbowrie","Brand":"2","Latitude":"-27.563361","Longitude":"152.888398","Suburb":"Bellbowrie","Postcode":"4070","State":"QLD","Uri":"/store-locator/stores/qld/bellbowrie-4549","IsClickCollectStore":"false","Distance":15814.52,"StoreItemNode":null,"TodaysOpenTime":"8am","TodaysClosingTime":"5pm","LocalitiesWithin50km":null,"OpenToday":"8am - 5pm","TodayDate":"01 October 2016"},{"Address":"59 Albany Creek Rd","PhoneNumber":"(07) 3630 9700","OpeningHours":"<ul id=\"openingHrs\"><li>Monday - Friday<span>8am - 9pm</span></li><li>Saturday<span>8am - 5pm</span></li><li>Sunday<span>9am - 6pm</span></li></ul>","OpeningHoursJson":[{"Day":"Monday - Friday","Time":"8am - 9pm"},{"Day":"Saturday","Time":"8am - 5pm"},{"Day":"Sunday","Time":"9am - 6pm"}],"ExceptionalHoursJson":[{"Date":"Monday 03 October","Reason":"Queen's Birthday","Details":"9am - 6pm","OpeningTime":null,"ClosingTime":null}],"Id":"4670","StoreName":" Aspley","Brand":"2","Latitude":"-27.361769","Longitude":"153.012912","Suburb":"Aspley","Postcode":"4034","State":"QLD","Uri":"/store-locator/stores/qld/aspley-4670","IsClickCollectStore":"true","Distance":15838.68,"StoreItemNode":null,"TodaysOpenTime":"8am","TodaysClosingTime":"5pm","LocalitiesWithin50km":null,"OpenToday":"8am - 5pm","TodayDate":"01 October 2016"},{"Address":"118 Edward St","PhoneNumber":"(07) 4783 3666","OpeningHours":"<ul id=\"openingHrs\"><li>Monday - Friday<span>8am - 9pm</span></li><li>Saturday<span>8am - 5pm</span></li><li>Sunday<span>Closed</span></li></ul>","OpeningHoursJson":[{"Day":"Monday - Friday","Time":"8am - 9pm"},{"Day":"Saturday","Time":"8am - 5pm"},{"Day":"Sunday","Time":"Closed"}],"ExceptionalHoursJson":[{"Date":"Monday 03 October","Reason":"Queen's Birthday","Details":"Closed","OpeningTime":null,"ClosingTime":null}],"Id":"4510","StoreName":" Ayr","Brand":"2","Latitude":"-19.572496","Longitude":"147.403846","Suburb":"Ayr","Postcode":"4807","State":"QLD","Uri":"/store-locator/stores/qld/ayr-4510","IsClickCollectStore":"false","Distance":15863.72,"StoreItemNode":null,"TodaysOpenTime":"8am","TodaysClosingTime":"5pm","LocalitiesWithin50km":null,"OpenToday":"8am - 5pm","TodayDate":"01 October 2016"},{"Address":"Main St & Bellew St","PhoneNumber":"(07) 3287 4277","OpeningHours":"<ul id=\"openingHrs\"><li>Monday - Friday<span>8am - 9pm</span></li><li>Saturday<span>8am - 5pm</span></li><li>Sunday<span>9am - 6pm</span></li></ul>","OpeningHoursJson":[{"Day":"Monday - Friday","Time":"8am - 9pm"},{"Day":"Saturday","Time":"8am - 5pm"},{"Day":"Sunday","Time":"9am - 6pm"}],"ExceptionalHoursJson":[{"Date":"Monday 03 October","Reason":"Queen's Birthday","Details":"9am - 6pm","OpeningTime":null,"ClosingTime":null}],"Id":"4449","StoreName":" Beenleigh","Brand":"2","Latitude":"-27.718445","Longitude":"153.202353","Suburb":"Beenleigh","Postcode":"4207","State":"QLD","Uri":"/store-locator/stores/qld/beenleigh-4449","IsClickCollectStore":"false","Distance":15825.75,"StoreItemNode":null,"TodaysOpenTime":"8am","TodaysClosingTime":"5pm","LocalitiesWithin50km":null,"OpenToday":"8am - 5pm","TodayDate":"01 October 2016"},{"Address":"Anna St & William St","PhoneNumber":"(07) 5541 2099","OpeningHours":"<ul id=\"openingHrs\"><li>Monday - Friday<span>8am - 9pm</span></li><li>Saturday<span>8am - 5pm</span></li><li>Sunday<span>9am - 6pm</span></li></ul>","OpeningHoursJson":[{"Day":"Monday - Friday","Time":"8am - 9pm"},{"Day":"Saturday","Time":"8am - 5pm"},{"Day":"Sunday","Time":"9am - 6pm"}],"ExceptionalHoursJson":[{"Date":"Monday 03 October","Reason":"Queen's Birthday","Details":"9am - 6pm","OpeningTime":null,"ClosingTime":null}],"Id":"4511","StoreName":" Beaudesert","Brand":"2","Latitude":"-27.989533","Longitude":"152.998844","Suburb":"Beaudesert","Postcode":"4285","State":"QLD","Uri":"/store-locator/stores/qld/beaudesert-4511","IsClickCollectStore":"false","Distance":15790.58,"StoreItemNode":null,"TodaysOpenTime":"8am","TodaysClosingTime":"5pm","LocalitiesWithin50km":null,"OpenToday":"8am - 5pm","TodayDate":"01 October 2016"},{"Address":"Anzac Ave & Boardman Rd","PhoneNumber":"(07) 3284 1255","OpeningHours":"<ul id=\"openingHrs\"><li>Monday - Friday<span>8am - 9pm</span></li><li>Saturday<span>8am - 5pm</span></li><li>Sunday<span>9am - 6pm</span></li></ul>","OpeningHoursJson":[{"Day":"Monday - Friday","Time":"8am - 9pm"},{"Day":"Saturday","Time":"8am - 5pm"},{"Day":"Sunday","Time":"9am - 6pm"}],"ExceptionalHoursJson":[{"Date":"Monday 03 October","Reason":"Queen's Birthday","Details":"9am - 6pm","OpeningTime":null,"ClosingTime":null}],"Id":"4519","StoreName":" Kippa Ring","Brand":"2","Latitude":"-27.226242","Longitude":"153.08766","Suburb":"Kippa Ring","Postcode":"4020","State":"QLD","Uri":"/store-locator/stores/qld/kippa-ring-4519","IsClickCollectStore":"false","Distance":15854.27,"StoreItemNode":null,"TodaysOpenTime":"8am","TodaysClosingTime":"5pm","LocalitiesWithin50km":null,"OpenToday":"8am - 5pm","TodayDate":"01 October 2016"},{"Address":"Brookfield Rd","PhoneNumber":"(07) 3378 4744","OpeningHours":"<ul id=\"openingHrs\"><li>Monday - Friday<span>8am - 9pm</span></li><li>Saturday<span>8am - 5pm</span></li><li>Sunday<span>9am - 6pm</span></li></ul>","OpeningHoursJson":[{"Day":"Monday - Friday","Time":"8am - 9pm"},{"Day":"Saturday","Time":"8am - 5pm"},{"Day":"Sunday","Time":"9am - 6pm"}],"ExceptionalHoursJson":[{"Date":"Monday 03 October","Reason":"Queen's Birthday","Details":"9am - 6pm","OpeningTime":null,"ClosingTime":null}],"Id":"4515","StoreName":" Kenmore","Brand":"2","Latitude":"-27.506316","Longitude":"152.938354","Suburb":"Kenmore","Postcode":"4069","State":"QLD","Uri":"/store-locator/stores/qld/kenmore-4515","IsClickCollectStore":"false","Distance":15822.43,"StoreItemNode":null,"TodaysOpenTime":"8am","TodaysClosingTime":"5pm","LocalitiesWithin50km":null,"OpenToday":"8am - 5pm","TodayDate":"01 October 2016"},{"Address":"Thuringowa Drv & Hervey Range Rd","PhoneNumber":"(07) 4755 9600","OpeningHours":"<ul id=\"openingHrs\"><li>Monday - Friday<span>8am - 9pm</span></li><li>Saturday<span>8am - 5:30pm</span></li><li>Sunday<span>11am - 6pm</span></li></ul>","OpeningHoursJson":[{"Day":"Monday - Friday","Time":"8am - 9pm"},{"Day":"Saturday","Time":"8am - 5:30pm"},{"Day":"Sunday","Time":"11am - 6pm"}],"ExceptionalHoursJson":[{"Date":"Monday 03 October","Reason":"Queen's Birthday","Details":"8:30am - 5:30pm","OpeningTime":null,"ClosingTime":null}],"Id":"4527","StoreName":" The Willows","Brand":"2","Latitude":"-19.317302","Longitude":"146.727185","Suburb":"Kirwan","Postcode":"4817","State":"QLD","Uri":"/store-locator/stores/qld/kirwan-4527","IsClickCollectStore":"false","Distance":15813.55,"StoreItemNode":null,"TodaysOpenTime":"8am","TodaysClosingTime":"5:30pm","LocalitiesWithin50km":null,"OpenToday":"8am - 5:30pm","TodayDate":"01 October 2016"},{"Address":"100 Brisbane Rd","PhoneNumber":"(07) 5537 4266","OpeningHours":"<ul id=\"openingHrs\"><li>Monday - Friday<span>8am - 9pm</span></li><li>Saturday<span>8am - 5:30pm</span></li><li>Sunday<span>9am - 6pm</span></li></ul>","OpeningHoursJson":[{"Day":"Monday - Friday","Time":"8am - 9pm"},{"Day":"Saturday","Time":"8am - 5:30pm"},{"Day":"Sunday","Time":"9am - 6pm"}],"ExceptionalHoursJson":[{"Date":"Monday 03 October","Reason":"Queen's Birthday","Details":"9am - 6pm","OpeningTime":null,"ClosingTime":null}],"Id":"4446","StoreName":" Labrador","Brand":"2","Latitude":"-27.936274","Longitude":"153.397209","Suburb":"Labrador","Postcode":"4215","State":"QLD","Uri":"/store-locator/stores/qld/labrador-4446","IsClickCollectStore":"false","Distance":15823.32,"StoreItemNode":null,"TodaysOpenTime":"8am","TodaysClosingTime":"5:30pm","LocalitiesWithin50km":null,"OpenToday":"8am - 5:30pm","TodayDate":"01 October 2016"},{"Address":"Cnr Dalrymple And Thuringowa Drive","PhoneNumber":"(07) 4755 9300","OpeningHours":"<ul id=\"openingHrs\"><li>Monday - Friday<span>8am - 9pm</span></li><li>Saturday<span>8am - 5:30pm</span></li><li>Sunday<span>11am - 6pm</span></li></ul>","OpeningHoursJson":[{"Day":"Monday - Friday","Time":"8am - 9pm"},{"Day":"Saturday","Time":"8am - 5:30pm"},{"Day":"Sunday","Time":"11am - 6pm"}],"ExceptionalHoursJson":[{"Date":"Monday 03 October","Reason":"Queen's Birthday","Details":"8:30am - 5:30pm","OpeningTime":null,"ClosingTime":null}],"Id":"4655","StoreName":" Thuringowa","Brand":"2","Latitude":"-19.288458","Longitude":"146.738891","Suburb":"Thuringowa","Postcode":"4817","State":"QLD","Uri":"/store-locator/stores/qld/kirwan-4655","IsClickCollectStore":"false","Distance":15816.09,"StoreItemNode":null,"TodaysOpenTime":"8am","TodaysClosingTime":"5:30pm","LocalitiesWithin50km":null,"OpenToday":"8am - 5:30pm","TodayDate":"01 October 2016"},{"Address":"2 Nellies Lane","PhoneNumber":"(07) 3491 8155","OpeningHours":"<ul id=\"openingHrs\"><li>Monday - Friday<span>8am - 9pm</span></li><li>Saturday<span>8am - 5pm</span></li><li>Sunday<span>9am - 6pm</span></li></ul>","OpeningHoursJson":[{"Day":"Monday - Friday","Time":"8am - 9pm"},{"Day":"Saturday","Time":"8am - 5pm"},{"Day":"Sunday","Time":"9am - 6pm"}],"ExceptionalHoursJson":[{"Date":"Monday 03 October","Reason":"Queen's Birthday","Details":"9am - 6pm","OpeningTime":null,"ClosingTime":null}],"Id":"8715","StoreName":" Kallangur","Brand":"2","Latitude":"-27.241087","Longitude":"152.993884","Suburb":"Kallangur","Postcode":"4503","State":"QLD","Uri":"/store-locator/stores/qld/kallangur-8715","IsClickCollectStore":"false","Distance":15846.27,"StoreItemNode":null,"TodaysOpenTime":"8am","TodaysClosingTime":"5pm","LocalitiesWithin50km":null,"OpenToday":"8am - 5pm","TodayDate":"01 October 2016"},{"Address":"Edith St & Ernest St","PhoneNumber":"(07) 4061 3200","OpeningHours":"<ul id=\"openingHrs\"><li>Monday - Friday<span>8am - 9pm</span></li><li>Saturday<span>8am - 5pm</span></li><li>Sunday<span>9am - 6pm</span></li></ul>","OpeningHoursJson":[{"Day":"Monday - Friday","Time":"8am - 9pm"},{"Day":"Saturday","Time":"8am - 5pm"},{"Day":"Sunday","Time":"9am - 6pm"}],"ExceptionalHoursJson":[{"Date":"Monday 03 October","Reason":"Queen's Birthday","Details":"8:30am - 5:30pm","OpeningTime":null,"ClosingTime":null}],"Id":"4441","StoreName":" Innisfail","Brand":"2","Latitude":"-17.523588","Longitude":"146.028221","Suburb":"Innisfail","Postcode":"4860","State":"QLD","Uri":"/store-locator/stores/qld/innisfail-4441","IsClickCollectStore":"false","Distance":15832.57,"StoreItemNode":null,"TodaysOpenTime":"8am","TodaysClosingTime":"5pm","LocalitiesWithin50km":null,"OpenToday":"8am - 5pm","TodayDate":"01 October 2016"},{"Address":"Lannercost St & Mcilwraith St","PhoneNumber":"(07) 4776 2201","OpeningHours":"<ul id=\"openingHrs\"><li>Monday - Friday<span>8am - 9pm</span></li><li>Saturday<span>8am - 5pm</span></li><li>Sunday<span>Closed</span></li></ul>","OpeningHoursJson":[{"Day":"Monday - Friday","Time":"8am - 9pm"},{"Day":"Saturday","Time":"8am - 5pm"},{"Day":"Sunday","Time":"Closed"}],"ExceptionalHoursJson":[{"Date":"Monday 03 October","Reason":"Queen's Birthday","Details":"Closed","OpeningTime":null,"ClosingTime":null}],"Id":"4442","StoreName":" Ingham","Brand":"2","Latitude":"-18.651031","Longitude":"146.152864","Suburb":"Ingham","Postcode":"4850","State":"QLD","Uri":"/store-locator/stores/qld/ingham-4442","IsClickCollectStore":"false","Distance":15791.93,"StoreItemNode":null,"TodaysOpenTime":"8am","TodaysClosingTime":"5pm","LocalitiesWithin50km":null,"OpenToday":"8am - 5pm","TodayDate":"01 October 2016"},{"Address":"Cnr Brisbane St & Gordon St","PhoneNumber":"(07) 3810 0100","OpeningHours":"<ul id=\"openingHrs\"><li>Monday - Friday<span>7am - 9pm</span></li><li>Saturday<span>7am - 7pm</span></li><li>Sunday<span>9am - 6pm</span></li></ul>","OpeningHoursJson":[{"Day":"Monday - Friday","Time":"7am - 9pm"},{"Day":"Saturday","Time":"7am - 7pm"},{"Day":"Sunday","Time":"9am - 6pm"}],"ExceptionalHoursJson":[{"Date":"Monday 03 October","Reason":"Queen's Birthday","Details":"9am - 6pm","OpeningTime":null,"ClosingTime":null}],"Id":"4566","StoreName":" Ipswich","Brand":"2","Latitude":"-27.615421","Longitude":"152.76178","Suburb":"Ipswich","Postcode":"4305","State":"QLD","Uri":"/store-locator/stores/qld/ipswich-4566","IsClickCollectStore":"false","Distance":15801.36,"StoreItemNode":null,"TodaysOpenTime":"7am","TodaysClosingTime":"7pm","LocalitiesWithin50km":null,"OpenToday":"7am - 7pm","TodayDate":"01 October 2016"},{"Address":"Sinnamon Rd","PhoneNumber":"(07) 3715 8977","OpeningHours":"<ul id=\"openingHrs\"><li>Monday - Friday<span>8am - 9pm</span></li><li>Saturday<span>8am - 5pm</span></li><li>Sunday<span>9am - 6pm</span></li></ul>","OpeningHoursJson":[{"Day":"Monday - Friday","Time":"8am - 9pm"},{"Day":"Saturday","Time":"8am - 5pm"},{"Day":"Sunday","Time":"9am - 6pm"}],"ExceptionalHoursJson":[{"Date":"Monday 03 October","Reason":"Queen's Birthday","Details":"9am - 6pm","OpeningTime":null,"ClosingTime":null}],"Id":"8714","StoreName":" Jindalee","Brand":"2","Latitude":"-27.533296","Longitude":"152.947734","Suburb":"Jindalee","Postcode":"4074","State":"QLD","Uri":"/store-locator/stores/qld/jindalee-8714","IsClickCollectStore":"false","Distance":15821.1,"StoreItemNode":null,"TodaysOpenTime":"8am","TodaysClosingTime":"5pm","LocalitiesWithin50km":null,"OpenToday":"8am - 5pm","TodayDate":"01 October 2016"},{"Address":"665 - 687 Cusack Ln","PhoneNumber":"(07) 5547 9100","OpeningHours":"<ul id=\"openingHrs\"><li>Monday - Friday<span>8am - 9pm</span></li><li>Saturday<span>8am - 5pm</span></li><li>Sunday<span>9am - 6pm</span></li></ul>","OpeningHoursJson":[{"Day":"Monday - Friday","Time":"8am - 9pm"},{"Day":"Saturday","Time":"8am - 5pm"},{"Day":"Sunday","Time":"9am - 6pm"}],"ExceptionalHoursJson":[{"Date":"Monday 03 October","Reason":"Queen's Birthday","Details":"9am - 6pm","OpeningTime":null,"ClosingTime":null}],"Id":"4453","StoreName":" Jimboomba","Brand":"2","Latitude":"-27.831851","Longitude":"153.026331","Suburb":"Jimboomba","Postcode":"4280","State":"QLD","Uri":"/store-locator/stores/qld/jimboomba-4453","IsClickCollectStore":"false","Distance":15804.45,"StoreItemNode":null,"TodaysOpenTime":"8am","TodaysClosingTime":"5pm","LocalitiesWithin50km":null,"OpenToday":"8am - 5pm","TodayDate":"01 October 2016"},{"Address":"Byrnes St","PhoneNumber":"(07) 4092 2566","OpeningHours":"<ul id=\"openingHrs\"><li>Monday - Friday<span>8am - 9pm</span></li><li>Saturday<span>8am - 5pm</span></li><li>Sunday<span>9am - 6pm</span></li></ul>","OpeningHoursJson":[{"Day":"Monday - Friday","Time":"8am - 9pm"},{"Day":"Saturday","Time":"8am - 5pm"},{"Day":"Sunday","Time":"9am - 6pm"}],"ExceptionalHoursJson":[{"Date":"Monday 03 October","Reason":"Queen's Birthday","Details":"8:30am - 5:30pm","OpeningTime":null,"ClosingTime":null}],"Id":"4482","StoreName":" Mareeba","Brand":"2","Latitude":"-16.998261","Longitude":"145.423382","Suburb":"Mareeba","Postcode":"4880","State":"QLD","Uri":"/store-locator/stores/qld/mareeba-4482","IsClickCollectStore":"false","Distance":15796.97,"StoreItemNode":null,"TodaysOpenTime":"8am","TodaysClosingTime":"5pm","LocalitiesWithin50km":null,"OpenToday":"8am - 5pm","TodayDate":"01 October 2016"},{"Address":"North Lakes Dr & Anzac Ave","PhoneNumber":"(07) 3491 5700","OpeningHours":"<ul id=\"openingHrs\"><li>Monday - Friday<span>8am - 9pm</span></li><li>Saturday<span>8am - 5pm</span></li><li>Sunday<span>9am - 6pm</span></li></ul>","OpeningHoursJson":[{"Day":"Monday - Friday","Time":"8am - 9pm"},{"Day":"Saturday","Time":"8am - 5pm"},{"Day":"Sunday","Time":"9am - 6pm"}],"ExceptionalHoursJson":[{"Date":"Monday 03 October","Reason":"Queen's Birthday","Details":"9am - 6pm","OpeningTime":null,"ClosingTime":null}],"Id":"4545","StoreName":" North Lakes","Brand":"2","Latitude":"-27.242888","Longitude":"153.018009","Suburb":"North Lakes","Postcode":"4509","State":"QLD","Uri":"/store-locator/stores/qld/mango-hill-4545","IsClickCollectStore":"false","Distance":15847.91,"StoreItemNode":null,"TodaysOpenTime":"8am","TodaysClosingTime":"5pm","LocalitiesWithin50km":null,"OpenToday":"8am - 5pm","TodayDate":"01 October 2016"},{"Address":"Horton Pde & Maroochydore Rd","PhoneNumber":"(07) 5409 4200","OpeningHours":"<ul id=\"openingHrs\"><li>Monday - Friday<span>8am - 9pm</span></li><li>Saturday<span>8am - 5:30pm</span></li><li>Sunday<span>9am - 6pm</span></li></ul>","OpeningHoursJson":[{"Day":"Monday - Friday","Time":"8am - 9pm"},{"Day":"Saturday","Time":"8am - 5:30pm"},{"Day":"Sunday","Time":"9am - 6pm"}],"ExceptionalHoursJson":[{"Date":"Monday 03 October","Reason":"Queen's Birthday","Details":"9am - 6pm","OpeningTime":null,"ClosingTime":null}],"Id":"4523","StoreName":" Maroochydore","Brand":"2","Latitude":"-26.654134","Longitude":"153.087868","Suburb":"Maroochydore","Postcode":"4558","State":"QLD","Uri":"/store-locator/stores/qld/maroochydore-4523","IsClickCollectStore":"true","Distance":15896.68,"StoreItemNode":null,"TodaysOpenTime":"8am","TodaysClosingTime":"5:30pm","LocalitiesWithin50km":null,"OpenToday":"8am - 5:30pm","TodayDate":"01 October 2016"},{"Address":"Chambers Flat Rd","PhoneNumber":"(07) 3200 7233","OpeningHours":"<ul id=\"openingHrs\"><li>Monday - Friday<span>8am - 9pm</span></li><li>Saturday<span>8am - 5pm</span></li><li>Sunday<span>9am - 6pm</span></li></ul>","OpeningHoursJson":[{"Day":"Monday - Friday","Time":"8am - 9pm"},{"Day":"Saturday","Time":"8am - 5pm"},{"Day":"Sunday","Time":"9am - 6pm"}],"ExceptionalHoursJson":[{"Date":"Monday 03 October","Reason":"Queen's Birthday","Details":"9am - 6pm","OpeningTime":null,"ClosingTime":null}],"Id":"4502","StoreName":" Marsden","Brand":"2","Latitude":"-27.678974","Longitude":"153.114612","Suburb":"Marsden","Postcode":"4132","State":"QLD","Uri":"/store-locator/stores/qld/marsden-4502","IsClickCollectStore":"false","Distance":15822.36,"StoreItemNode":null,"TodaysOpenTime":"8am","TodaysClosingTime":"5pm","LocalitiesWithin50km":null,"OpenToday":"8am - 5pm","TodayDate":"01 October 2016"},{"Address":"78 Sydney St","PhoneNumber":"(07) 4940 0200","OpeningHours":"<ul id=\"openingHrs\"><li>Monday - Friday<span>8am - 9pm</span></li><li>Saturday<span>8am - 5:30pm</span></li><li>Sunday<span>9am - 6pm</span></li></ul>","OpeningHoursJson":[{"Day":"Monday - Friday","Time":"8am - 9pm"},{"Day":"Saturday","Time":"8am - 5:30pm"},{"Day":"Sunday","Time":"9am - 6pm"}],"ExceptionalHoursJson":[{"Date":"Monday 03 October","Reason":"Queen's Birthday","Details":"8:30am - 5:30pm","OpeningTime":null,"ClosingTime":null}],"Id":"4587","StoreName":" Sydney Street","Brand":"2","Latitude":"-21.143659","Longitude":"149.187481","Suburb":"Mackay","Postcode":"4740","State":"QLD","Uri":"/store-locator/stores/qld/mackay-4587","IsClickCollectStore":"false","Distance":15940.03,"StoreItemNode":null,"TodaysOpenTime":"8am","TodaysClosingTime":"5:30pm","LocalitiesWithin50km":null,"OpenToday":"8am - 5:30pm","TodayDate":"01 October 2016"},{"Address":"Pacific Hwy & Bryants Rd","PhoneNumber":"(07) 3801 7200","OpeningHours":"<ul id=\"openingHrs\"><li>Monday - Friday<span>8am - 9pm</span></li><li>Saturday<span>8am - 5pm</span></li><li>Sunday<span>9am - 6pm</span></li></ul>","OpeningHoursJson":[{"Day":"Monday - Friday","Time":"8am - 9pm"},{"Day":"Saturday","Time":"8am - 5pm"},{"Day":"Sunday","Time":"9am - 6pm"}],"ExceptionalHoursJson":[{"Date":"Monday 03 October","Reason":"Queen's Birthday","Details":"9am - 6pm","OpeningTime":null,"ClosingTime":null}],"Id":"4407","StoreName":" Loganholme","Brand":"2","Latitude":"-27.660973","Longitude":"153.171841","Suburb":"Loganholme","Postcode":"4129","State":"QLD","Uri":"/store-locator/stores/qld/loganholme-4407","IsClickCollectStore":"true","Distance":15827.87,"StoreItemNode":null,"TodaysOpenTime":"8am","TodaysClosingTime":"5pm","LocalitiesWithin50km":null,"OpenToday":"8am - 5pm","TodayDate":"01 October 2016"},{"Address":"Pacific Hwy & Bryants Rd","PhoneNumber":"(07) 3801 5977","OpeningHours":"<ul id=\"openingHrs\"><li>Monday - Friday<span>8am - 9pm</span></li><li>Saturday<span>8am - 5pm</span></li><li>Sunday<span>9am - 6pm</span></li></ul>","OpeningHoursJson":[{"Day":"Monday - Friday","Time":"8am - 9pm"},{"Day":"Saturday","Time":"8am - 5pm"},{"Day":"Sunday","Time":"9am - 6pm"}],"ExceptionalHoursJson":[{"Date":"Monday 03 October","Reason":"Queen's Birthday","Details":"9am - 6pm","OpeningTime":null,"ClosingTime":null}],"Id":"4332","StoreName":"Bi-Lo Loganholme","Brand":"6","Latitude":"-27.656479","Longitude":"153.170305","Suburb":"Loganholme","Postcode":"4129","State":"QLD","Uri":"/store-locator/stores/qld/loganholme-4332","IsClickCollectStore":"false","Distance":15828.09,"StoreItemNode":null,"TodaysOpenTime":"8am","TodaysClosingTime":"5pm","LocalitiesWithin50km":null,"OpenToday":"8am - 5pm","TodayDate":"01 October 2016"},{"Address":"Lutwyche Rd & Lowerson St","PhoneNumber":"(07) 3357 7311","OpeningHours":"<ul id=\"openingHrs\"><li>Monday - Friday<span>8am - 9pm</span></li><li>Saturday<span>8am - 5pm</span></li><li>Sunday<span>9am - 6pm</span></li></ul>","OpeningHoursJson":[{"Day":"Monday - Friday","Time":"8am - 9pm"},{"Day":"Saturday","Time":"8am - 5pm"},{"Day":"Sunday","Time":"9am - 6pm"}],"ExceptionalHoursJson":[{"Date":"Monday 03 October","Reason":"Queen's Birthday","Details":"9am - 6pm","OpeningTime":null,"ClosingTime":null}],"Id":"4450","StoreName":" Lutwyche","Brand":"2","Latitude":"-27.42253","Longitude":"153.034156","Suburb":"Lutwyche","Postcode":"4030","State":"QLD","Uri":"/store-locator/stores/qld/lutwyche-4450","IsClickCollectStore":"false","Distance":15835.7,"StoreItemNode":null,"TodaysOpenTime":"8am","TodaysClosingTime":"5pm","LocalitiesWithin50km":null,"OpenToday":"8am - 5pm","TodayDate":"01 October 2016"},{"Address":"Mangrove Road & Victoria Street","PhoneNumber":"(07) 4898 5700","OpeningHours":"<ul id=\"openingHrs\"><li>Monday - Friday<span>8am - 9pm</span></li><li>Saturday<span>8am - 5:30pm</span></li><li>Sunday<span>9am - 6pm</span></li></ul>","OpeningHoursJson":[{"Day":"Monday - Friday","Time":"8am - 9pm"},{"Day":"Saturday","Time":"8am - 5:30pm"},{"Day":"Sunday","Time":"9am - 6pm"}],"ExceptionalHoursJson":[{"Date":"Monday 03 October","Reason":"Queen's Birthday","Details":"8:30am - 5:30pm","OpeningTime":null,"ClosingTime":null}],"Id":"4558","StoreName":" Mackay (caneland)","Brand":"2","Latitude":"-21.13914","Longitude":"149.178567","Suburb":"Mackay","Postcode":"4740","State":"QLD","Uri":"/store-locator/stores/qld/mackay-4558","IsClickCollectStore":"false","Distance":15939.5,"StoreItemNode":null,"TodaysOpenTime":"8am","TodaysClosingTime":"5:30pm","LocalitiesWithin50km":null,"OpenToday":"8am - 5:30pm","TodayDate":"01 October 2016"},{"Address":"Malcomson St & Mackay Bucasia Rd","PhoneNumber":"(07) 4942 1011","OpeningHours":"<ul id=\"openingHrs\"><li>Monday - Friday<span>8am - 9pm</span></li><li>Saturday<span>8am - 5:30pm</span></li><li>Sunday<span>9am - 6pm</span></li></ul>","OpeningHoursJson":[{"Day":"Monday - Friday","Time":"8am - 9pm"},{"Day":"Saturday","Time":"8am - 5:30pm"},{"Day":"Sunday","Time":"9am - 6pm"}],"ExceptionalHoursJson":[{"Date":"Monday 03 October","Reason":"Queen's Birthday","Details":"8:30am - 5:30pm","OpeningTime":null,"ClosingTime":null}],"Id":"4481","StoreName":" Mount Pleasant","Brand":"2","Latitude":"-21.119253","Longitude":"149.157414","Suburb":"Mackay","Postcode":"4740","State":"QLD","Uri":"/store-locator/stores/qld/mackay-4481","IsClickCollectStore":"true","Distance":15938.77,"StoreItemNode":null,"TodaysOpenTime":"8am","TodaysClosingTime":"5:30pm","LocalitiesWithin50km":null,"OpenToday":"8am - 5:30pm","TodayDate":"01 October 2016"},{"Address":"45-47 Mcginn Road","PhoneNumber":"(07) 3851 4620","OpeningHours":"<ul id=\"openingHrs\"><li>Monday - Friday<span>8am - 9pm</span></li><li>Saturday<span>8am - 5pm</span></li><li>Sunday<span>9am - 6pm</span></li></ul>","OpeningHoursJson":[{"Day":"Monday - Friday","Time":"8am - 9pm"},{"Day":"Saturday","Time":"8am - 5pm"},{"Day":"Sunday","Time":"9am - 6pm"}],"ExceptionalHoursJson":[{"Date":"Monday 03 October","Reason":"Queen's Birthday","Details":"9am - 6pm","OpeningTime":null,"ClosingTime":null}],"Id":"8712","StoreName":" Ferny Grove","Brand":"2","Latitude":"-27.404878","Longitude":"152.931228","Suburb":"Ferny Grove","Postcode":"4055","State":"QLD","Uri":"/store-locator/stores/qld/ferny-grove-8712","IsClickCollectStore":"false","Distance":15829.47,"StoreItemNode":null,"TodaysOpenTime":"8am","TodaysClosingTime":"5pm","LocalitiesWithin50km":null,"OpenToday":"8am - 5pm","TodayDate":"01 October 2016"},{"Address":"Fairfield Rd & Brougham St","PhoneNumber":"(07) 3214 6500","OpeningHours":"<ul id=\"openingHrs\"><li>Monday - Friday<span>8am - 9pm</span></li><li>Saturday<span>8am - 5pm</span></li><li>Sunday<span>9am - 6pm</span></li></ul>","OpeningHoursJson":[{"Day":"Monday - Friday","Time":"8am - 9pm"},{"Day":"Saturday","Time":"8am - 5pm"},{"Day":"Sunday","Time":"9am - 6pm"}],"ExceptionalHoursJson":[{"Date":"Monday 03 October","Reason":"Queen's Birthday","Details":"9am - 6pm","OpeningTime":null,"ClosingTime":null}],"Id":"4512","StoreName":" Fairfield","Brand":"2","Latitude":"-27.509002","Longitude":"153.025143","Suburb":"Fairfield","Postcode":"4103","State":"QLD","Uri":"/store-locator/stores/qld/fairfield-4512","IsClickCollectStore":"true","Distance":15828.58,"StoreItemNode":null,"TodaysOpenTime":"8am","TodaysClosingTime":"5pm","LocalitiesWithin50km":null,"OpenToday":"8am - 5pm","TodayDate":"01 October 2016"},{"Address":"235 Forest Lake Bvd","PhoneNumber":"(07) 3714 2500","OpeningHours":"<ul id=\"openingHrs\"><li>Monday - Friday<span>8am - 9pm</span></li><li>Saturday<span>8am - 5pm</span></li><li>Sunday<span>9am - 6pm</span></li></ul>","OpeningHoursJson":[{"Day":"Monday - Friday","Time":"8am - 9pm"},{"Day":"Saturday","Time":"8am - 5pm"},{"Day":"Sunday","Time":"9am - 6pm"}],"ExceptionalHoursJson":[{"Date":"Monday 03 October","Reason":"Queen's Birthday","Details":"9am - 6pm","OpeningTime":null,"ClosingTime":null}],"Id":"4421","StoreName":" Forest Lake","Brand":"2","Latitude":"-27.624702","Longitude":"152.969815","Suburb":"Forest Lake","Postcode":"4078","State":"QLD","Uri":"/store-locator/stores/qld/forest-lake-4421","IsClickCollectStore":"false","Distance":15815.88,"StoreItemNode":null,"TodaysOpenTime":"8am","TodaysClosingTime":"5pm","LocalitiesWithin50km":null,"OpenToday":"8am - 5pm","TodayDate":"01 October 2016"},{"Address":"Dawson Hwy & Phillip St","PhoneNumber":"(07) 4978 4377","OpeningHours":"<ul id=\"openingHrs\"><li>Monday - Friday<span>8am - 9pm</span></li><li>Saturday<span>8am - 5pm</span></li><li>Sunday<span>9am - 6pm</span></li></ul>","OpeningHoursJson":[{"Day":"Monday - Friday","Time":"8am - 9pm"},{"Day":"Saturday","Time":"8am - 5pm"},{"Day":"Sunday","Time":"9am - 6pm"}],"ExceptionalHoursJson":[{"Date":"Monday 03 October","Reason":"Queen's Birthday","Details":"8:30am - 5:30pm","OpeningTime":null,"ClosingTime":null}],"Id":"4406","StoreName":" Gladstone","Brand":"2","Latitude":"-23.869878","Longitude":"151.240165","Suburb":"Gladstone","Postcode":"4680","State":"QLD","Uri":"/store-locator/stores/qld/gladstone-4406","IsClickCollectStore":"true","Distance":15946.78,"StoreItemNode":null,"TodaysOpenTime":"8am","TodaysClosingTime":"5pm","LocalitiesWithin50km":null,"OpenToday":"8am - 5pm","TodayDate":"01 October 2016"},{"Address":"Anne St & William St","PhoneNumber":"(07) 5462 2622","OpeningHours":"<ul id=\"openingHrs\"><li>Monday - Friday<span>8am - 9pm</span></li><li>Saturday<span>8am - 5pm</span></li><li>Sunday<span>9am - 6pm</span></li></ul>","OpeningHoursJson":[{"Day":"Monday - Friday","Time":"8am - 9pm"},{"Day":"Saturday","Time":"8am - 5pm"},{"Day":"Sunday","Time":"9am - 6pm"}],"ExceptionalHoursJson":[{"Date":"Monday 03 October","Reason":"Queen's Birthday","Details":"9am - 6pm","OpeningTime":null,"ClosingTime":null}],"Id":"4483","StoreName":" Gatton","Brand":"2","Latitude":"-27.559314","Longitude":"152.277398","Suburb":"Gatton","Postcode":"4343","State":"QLD","Uri":"/store-locator/stores/qld/gatton-4483","IsClickCollectStore":"false","Distance":15769.83,"StoreItemNode":null,"TodaysOpenTime":"8am","TodaysClosingTime":"5pm","LocalitiesWithin50km":null,"OpenToday":"8am - 5pm","TodayDate":"01 October 2016"},{"Address":"751 Stafford Rd","PhoneNumber":"(07) 3355 6033","OpeningHours":"<ul id=\"openingHrs\"><li>Monday - Friday<span>8am - 9pm</span></li><li>Saturday<span>8am - 5pm</span></li><li>Sunday<span>9am - 6pm</span></li></ul>","OpeningHoursJson":[{"Day":"Monday - Friday","Time":"8am - 9pm"},{"Day":"Saturday","Time":"8am - 5pm"},{"Day":"Sunday","Time":"9am - 6pm"}],"ExceptionalHoursJson":[{"Date":"Monday 03 October","Reason":"Queen's Birthday","Details":"9am - 6pm","OpeningTime":null,"ClosingTime":null}],"Id":"4462","StoreName":" Everton Park","Brand":"2","Latitude":"-27.406656","Longitude":"152.990882","Suburb":"Everton Park","Postcode":"4053","State":"QLD","Uri":"/store-locator/stores/qld/everton-park-4462","IsClickCollectStore":"false","Distance":15833.72,"StoreItemNode":null,"TodaysOpenTime":"8am","TodaysClosingTime":"5pm","LocalitiesWithin50km":null,"OpenToday":"8am - 5pm","TodayDate":"01 October 2016"},{"Address":"537 Mulgrave Rd","PhoneNumber":"(07) 4047 8400","OpeningHours":"<ul id=\"openingHrs\"><li>Monday - Friday<span>8am - 9pm</span></li><li>Saturday<span>8am - 5:30pm</span></li><li>Sunday<span>9am - 6pm</span></li></ul>","OpeningHoursJson":[{"Day":"Monday - Friday","Time":"8am - 9pm"},{"Day":"Saturday","Time":"8am - 5:30pm"},{"Day":"Sunday","Time":"9am - 6pm"}],"ExceptionalHoursJson":[{"Date":"Monday 03 October","Reason":"Queen's Birthday","Details":"8:30am - 5:30pm","OpeningTime":null,"ClosingTime":null}],"Id":"4409","StoreName":" Earlville","Brand":"2","Latitude":"-16.943948","Longitude":"145.739215","Suburb":"Earlville","Postcode":"4870","State":"QLD","Uri":"/store-locator/stores/qld/earlville-4409","IsClickCollectStore":"false","Distance":15830.27,"StoreItemNode":null,"TodaysOpenTime":"8am","TodaysClosingTime":"5:30pm","LocalitiesWithin50km":null,"OpenToday":"8am - 5:30pm","TodayDate":"01 October 2016"},{"Address":"Bruce Hwy","PhoneNumber":"(07) 4751 7400","OpeningHours":"<ul id=\"openingHrs\"><li>Monday - Friday<span>8am - 9pm</span></li><li>Saturday<span>8am - 5:30pm</span></li><li>Sunday<span>11am - 6pm</span></li></ul>","OpeningHoursJson":[{"Day":"Monday - Friday","Time":"8am - 9pm"},{"Day":"Saturday","Time":"8am - 5:30pm"},{"Day":"Sunday","Time":"11am - 6pm"}],"ExceptionalHoursJson":[{"Date":"Monday 03 October","Reason":"Queen's Birthday","Details":"8:30am - 5:30pm","OpeningTime":null,"ClosingTime":null}],"Id":"4569","StoreName":" Deeragun","Brand":"2","Latitude":"-19.247407","Longitude":"146.6777","Suburb":"Deeragun","Postcode":"4818","State":"QLD","Uri":"/store-locator/stores/qld/deeragun-4569","IsClickCollectStore":"false","Distance":15812.4,"StoreItemNode":null,"TodaysOpenTime":"8am","TodaysClosingTime":"5:30pm","LocalitiesWithin50km":null,"OpenToday":"8am - 5:30pm","TodayDate":"01 October 2016"},{"Address":"Walker Rd","PhoneNumber":"(07) 4045 8100","OpeningHours":"<ul id=\"openingHrs\"><li>Monday - Friday<span>8am - 9pm</span></li><li>Saturday<span>8am - 5:30pm</span></li><li>Sunday<span>9am - 6pm</span></li></ul>","OpeningHoursJson":[{"Day":"Monday - Friday","Time":"8am - 9pm"},{"Day":"Saturday","Time":"8am - 5:30pm"},{"Day":"Sunday","Time":"9am - 6pm"}],"ExceptionalHoursJson":[{"Date":"Monday 03 October","Reason":"Queen's Birthday","Details":"8:30am - 5:30pm","OpeningTime":null,"ClosingTime":null}],"Id":"4410","StoreName":" Edmonton","Brand":"2","Latitude":"-17.019431","Longitude":"145.728233","Suburb":"Edmonton","Postcode":"4869","State":"QLD","Uri":"/store-locator/stores/qld/edmonton-4410","IsClickCollectStore":"false","Distance":15825.88,"StoreItemNode":null,"TodaysOpenTime":"8am","TodaysClosingTime":"5:30pm","LocalitiesWithin50km":null,"OpenToday":"8am - 5:30pm","TodayDate":"01 October 2016"},{"Address":"Clermont St & Opal St","PhoneNumber":"(07) 4980 8100","OpeningHours":"<ul id=\"openingHrs\"><li>Monday - Friday<span>8am - 9pm</span></li><li>Saturday<span>8am - 5pm</span></li><li>Sunday<span>9am - 6pm</span></li></ul>","OpeningHoursJson":[{"Day":"Monday - Friday","Time":"8am - 9pm"},{"Day":"Saturday","Time":"8am - 5pm"},{"Day":"Sunday","Time":"9am - 6pm"}],"ExceptionalHoursJson":[{"Date":"Monday 03 October","Reason":"Queen's Birthday","Details":"8:30am - 5:30pm","OpeningTime":null,"ClosingTime":null}],"Id":"4541","StoreName":" Emerald","Brand":"2","Latitude":"-23.528279","Longitude":"148.163429","Suburb":"Emerald","Postcode":"4720","State":"QLD","Uri":"/store-locator/stores/qld/emerald-4541","IsClickCollectStore":"false","Distance":15710.09,"StoreItemNode":null,"TodaysOpenTime":"8am","TodaysClosingTime":"5pm","LocalitiesWithin50km":null,"OpenToday":"8am - 5pm","TodayDate":"01 October 2016"},{"Address":"Guineas Ck Rd & Kp Mcgrath Drv","PhoneNumber":"(07) 5586 4400","OpeningHours":"<ul id=\"openingHrs\"><li>Monday - Friday<span>8am - 9pm</span></li><li>Saturday<span>8am - 5:30pm</span></li><li>Sunday<span>9am - 6pm</span></li></ul>","OpeningHoursJson":[{"Day":"Monday - Friday","Time":"8am - 9pm"},{"Day":"Saturday","Time":"8am - 5:30pm"},{"Day":"Sunday","Time":"9am - 6pm"}],"ExceptionalHoursJson":[{"Date":"Monday 03 October","Reason":"Queen's Birthday","Details":"9am - 6pm","OpeningTime":null,"ClosingTime":null}],"Id":"4405","StoreName":" The Pines","Brand":"2","Latitude":"-28.13514","Longitude":"153.468565","Suburb":"Elanora","Postcode":"4221","State":"QLD","Uri":"/store-locator/stores/qld/elanora-4405","IsClickCollectStore":"true","Distance":15813.27,"StoreItemNode":null,"TodaysOpenTime":"8am","TodaysClosingTime":"5:30pm","LocalitiesWithin50km":null,"OpenToday":"8am - 5:30pm","TodayDate":"01 October 2016"},{"Address":"Santa Barbara Rd","PhoneNumber":"(07) 5510 8566","OpeningHours":"<ul id=\"openingHrs\"><li>Monday - Friday<span>8am - 9pm</span></li><li>Saturday<span>8am - 5pm</span></li><li>Sunday<span>9am - 6pm</span></li></ul>","OpeningHoursJson":[{"Day":"Monday - Friday","Time":"8am - 9pm"},{"Day":"Saturday","Time":"8am - 5pm"},{"Day":"Sunday","Time":"9am - 6pm"}],"ExceptionalHoursJson":[{"Date":"Monday 03 October","Reason":"Queen's Birthday","Details":"9am - 6pm","OpeningTime":null,"ClosingTime":null}],"Id":"4418","StoreName":" Hope Island","Brand":"2","Latitude":"-27.867632","Longitude":"153.350018","Suburb":"Hope Island","Postcode":"4212","State":"QLD","Uri":"/store-locator/stores/qld/hope-island-4418","IsClickCollectStore":"false","Distance":15825.14,"StoreItemNode":null,"TodaysOpenTime":"8am","TodaysClosingTime":"5pm","LocalitiesWithin50km":null,"OpenToday":"8am - 5pm","TodayDate":"01 October 2016"},{"Address":"1 Plaza Cir","PhoneNumber":"(07) 4615 5126","OpeningHours":"<ul id=\"openingHrs\"><li>Monday - Friday<span>8am - 9pm</span></li><li>Saturday<span>8am - 5pm</span></li><li>Sunday<span>9am - 6pm</span></li></ul>","OpeningHoursJson":[{"Day":"Monday - Friday","Time":"8am - 9pm"},{"Day":"Saturday","Time":"8am - 5pm"},{"Day":"Sunday","Time":"9am - 6pm"}],"ExceptionalHoursJson":[{"Date":"Monday 03 October","Reason":"Queen's Birthday","Details":"8:30am - 5:30pm","OpeningTime":null,"ClosingTime":null}],"Id":"4452","StoreName":" Highfields","Brand":"2","Latitude":"-27.458469","Longitude":"151.958534","Suburb":"Highfields","Postcode":"4352","State":"QLD","Uri":"/store-locator/stores/qld/highfields-4452","IsClickCollectStore":"false","Distance":15753.5,"StoreItemNode":null,"TodaysOpenTime":"8am","TodaysClosingTime":"5pm","LocalitiesWithin50km":null,"OpenToday":"8am - 5pm","TodayDate":"01 October 2016"},{"Address":"Moggill Rd","PhoneNumber":"(07) 3720 3400","OpeningHours":"<ul id=\"openingHrs\"><li>Monday - Friday<span>8am - 9pm</span></li><li>Saturday<span>8am - 5pm</span></li><li>Sunday<span>9am - 6pm</span></li></ul>","OpeningHoursJson":[{"Day":"Monday - Friday","Time":"8am - 9pm"},{"Day":"Saturday","Time":"8am - 5pm"},{"Day":"Sunday","Time":"9am - 6pm"}],"ExceptionalHoursJson":[{"Date":"Monday 03 October","Reason":"Queen's Birthday","Details":"9am - 6pm","OpeningTime":null,"ClosingTime":null}],"Id":"4660","StoreName":" Indooroopilly","Brand":"2","Latitude":"-27.49839","Longitude":"152.972985","Suburb":"Indooroopilly","Postcode":"4068","State":"QLD","Uri":"/store-locator/stores/qld/indooroopilly-4660","IsClickCollectStore":"false","Distance":15825.56,"StoreItemNode":null,"TodaysOpenTime":"8am","TodaysClosingTime":"5pm","LocalitiesWithin50km":null,"OpenToday":"8am - 5pm","TodayDate":"01 October 2016"},{"Address":"Gold Coast Hwy","PhoneNumber":"(07) 5580 7300","OpeningHours":"<ul id=\"openingHrs\"><li>Monday - Friday<span>8am - 9pm</span></li><li>Saturday<span>8am - 5pm</span></li><li>Sunday<span>9am - 6pm</span></li></ul>","OpeningHoursJson":[{"Day":"Monday - Friday","Time":"8am - 9pm"},{"Day":"Saturday","Time":"8am - 5pm"},{"Day":"Sunday","Time":"9am - 6pm"}],"ExceptionalHoursJson":[{"Date":"Monday 03 October","Reason":"Queen's Birthday","Details":"9am - 6pm","OpeningTime":null,"ClosingTime":null}],"Id":"8732","StoreName":" Helensvale Plaza","Brand":"2","Latitude":"-27.923665","Longitude":"153.334476","Suburb":"Helensvale","Postcode":"4210","State":"QLD","Uri":"/store-locator/stores/qld/helensvale-8732","IsClickCollectStore":"false","Distance":15819.77,"StoreItemNode":null,"TodaysOpenTime":"8am","TodaysClosingTime":"5pm","LocalitiesWithin50km":null,"OpenToday":"8am - 5pm","TodayDate":"01 October 2016"},{"Address":"Herbert St & Callandoon St","PhoneNumber":"(07) 4671 5902","OpeningHours":"<ul id=\"openingHrs\"><li>Monday - Friday<span>8am - 9pm</span></li><li>Saturday<span>8am - 5pm</span></li><li>Sunday<span>Closed</span></li></ul>","OpeningHoursJson":[{"Day":"Monday - Friday","Time":"8am - 9pm"},{"Day":"Saturday","Time":"8am - 5pm"},{"Day":"Sunday","Time":"Closed"}],"ExceptionalHoursJson":[{"Date":"Monday 03 October","Reason":"Queen's Birthday","Details":"Closed","OpeningTime":null,"ClosingTime":null}],"Id":"4384","StoreName":" Goondiwindi","Brand":"2","Latitude":"-28.545735","Longitude":"150.304794","Suburb":"Goondiwindi","Postcode":"4390","State":"QLD","Uri":"/store-locator/stores/qld/goondiwindi-4384","IsClickCollectStore":"false","Distance":15551.34,"StoreItemNode":null,"TodaysOpenTime":"8am","TodaysClosingTime":"5pm","LocalitiesWithin50km":null,"OpenToday":"8am - 5pm","TodayDate":"01 October 2016"},{"Address":"700 Logan Rd","PhoneNumber":"(07) 3329 3600","OpeningHours":"<ul id=\"openingHrs\"><li>Monday - Friday<span>8am - 9pm</span></li><li>Saturday<span>8am - 5pm</span></li><li>Sunday<span>9am - 6pm</span></li></ul>","OpeningHoursJson":[{"Day":"Monday - Friday","Time":"8am - 9pm"},{"Day":"Saturday","Time":"8am - 5pm"},{"Day":"Sunday","Time":"9am - 6pm"}],"ExceptionalHoursJson":[{"Date":"Monday 03 October","Reason":"Queen's Birthday","Details":"9am - 6pm","OpeningTime":null,"ClosingTime":null}],"Id":"4507","StoreName":" Greenslopes","Brand":"2","Latitude":"-27.511719","Longitude":"153.053356","Suburb":"Greenslopes","Postcode":"4120","State":"QLD","Uri":"/store-locator/stores/qld/greenslopes-4507","IsClickCollectStore":"false","Distance":15830.44,"StoreItemNode":null,"TodaysOpenTime":"8am","TodaysClosingTime":"5pm","LocalitiesWithin50km":null,"OpenToday":"8am - 5pm","TodayDate":"01 October 2016"},{"Address":"Gold Coast Hwy & Town Centre Drv","PhoneNumber":"(07) 5514 3000","OpeningHours":"<ul id=\"openingHrs\"><li>Monday - Friday<span>8am - 9pm</span></li><li>Saturday<span>8am - 5:30pm</span></li><li>Sunday<span>9am - 6pm</span></li></ul>","OpeningHoursJson":[{"Day":"Monday - Friday","Time":"8am - 9pm"},{"Day":"Saturday","Time":"8am - 5:30pm"},{"Day":"Sunday","Time":"9am - 6pm"}],"ExceptionalHoursJson":[{"Date":"Monday 03 October","Reason":"Queen's Birthday","Details":"9am - 6pm","OpeningTime":null,"ClosingTime":null}],"Id":"4584","StoreName":" Helensvale","Brand":"2","Latitude":"-27.925732","Longitude":"153.336912","Suburb":"Helensvale","Postcode":"4212","State":"QLD","Uri":"/store-locator/stores/qld/helensvale-4584","IsClickCollectStore":"false","Distance":15819.78,"StoreItemNode":null,"TodaysOpenTime":"8am","TodaysClosingTime":"5:30pm","LocalitiesWithin50km":null,"OpenToday":"8am - 5:30pm","TodayDate":"01 October 2016"},{"Address":"Monkland St & Nash St","PhoneNumber":"(07) 5482 4377","OpeningHours":"<ul id=\"openingHrs\"><li>Monday - Friday<span>8am - 9pm</span></li><li>Saturday<span>8am - 5pm</span></li><li>Sunday<span>9am - 6pm</span></li></ul>","OpeningHoursJson":[{"Day":"Monday - Friday","Time":"8am - 9pm"},{"Day":"Saturday","Time":"8am - 5pm"},{"Day":"Sunday","Time":"9am - 6pm"}],"ExceptionalHoursJson":[{"Date":"Monday 03 October","Reason":"Queen's Birthday","Details":"8:30am - 5:30pm","OpeningTime":null,"ClosingTime":null}],"Id":"4440","StoreName":" Gympie","Brand":"2","Latitude":"-26.188037","Longitude":"152.661451","Suburb":"Gympie","Postcode":"4570","State":"QLD","Uri":"/store-locator/stores/qld/gympie-4440","IsClickCollectStore":"false","Distance":15898.61,"StoreItemNode":null,"TodaysOpenTime":"8am","TodaysClosingTime":"5pm","LocalitiesWithin50km":null,"OpenToday":"8am - 5pm","TodayDate":"01 October 2016"}]}]